[
  {
    "Nome": "Arcos de Valdevez-Juízo Local Criminal",
    "Tipo": 1,
    "Ordenacao": 1,
    "Morada": "Palácio da Justiça - Praça Municipal",
    "CodigoPostal": "4974-006 ARCOS DE VALDEVEZ",
    "Telefone": "258090140",
    "FAX": "258514159",
    "Email": "avaldevez.judicial@tribunais.org.pt",
    "Posicao": { "Lat": "41.84639", "Lng": "-8.41784" },
    "DadosAtividade": [
      { "Texto": "Pendentes em 2021:", "Valor": "58" },
      { "Texto": "Entrados em 2022:", "Valor": "164" },
      { "Texto": "Findos em 2022:", "Valor": "155" },
      { "Texto": "Pendentes em 2022:", "Valor": "67" }
    ]
  },
  {
    "Nome": "Balcão Nacional de Arrendamento - BNA",
    "Tipo": 1,
    "Ordenacao": 1,
    "Morada": "R. de Camões, nº 155, 1º",
    "CodigoPostal": "4049 - 074 PORTO",
    "Telefone": "220949331/2/3",
    "FAX": "220949505",
    "Email": "bna@tribunais.org.pt",
    "Posicao": { "Lat": "41.15327", "Lng": "-8.61049" },
    "DadosAtividade": null
  },
  {
    "Nome": "Balcão Nacional de Injunções",
    "Tipo": 1,
    "Ordenacao": 1,
    "Morada": "R. de Camões, nº 155, 1º",
    "CodigoPostal": "4049 - 074 PORTO",
    "Telefone": "220949310",
    "FAX": "220949505",
    "Email": "porto.bni@tribunais.org.pt",
    "Posicao": { "Lat": "41.15349289194524", "Lng": "-8.612588342080698" },
    "DadosAtividade": null
  },
  {
    "Nome": "Departamento Contencioso do Estado - Secção Central",
    "Tipo": 1,
    "Ordenacao": 1,
    "Morada": "Palácio da Justiça, Rua Marquês de Fronteira",
    "CodigoPostal": "1070 - 292 Lisboa",
    "Telefone": "213846400",
    "FAX": "213878036",
    "Email": "",
    "Posicao": { "Lat": "38.7322655", "Lng": "-9.1596514" },
    "DadosAtividade": null
  },
  {
    "Nome": "Departamento Contencioso do Estado - Secção Processos",
    "Tipo": 1,
    "Ordenacao": 2,
    "Morada": "Palácio da Justiça, Rua Marquês de Fronteira",
    "CodigoPostal": "1070 - 292 Lisboa",
    "Telefone": "213846400",
    "FAX": "213878036",
    "Email": "",
    "Posicao": { "Lat": "38.7322655", "Lng": "-9.1596514" },
    "DadosAtividade": null
  },
  {
    "Nome": "DIAP Regional Coimbra - 1ª Sec - Sec Económica-Financeira e Crime Violento - Coimbra",
    "Tipo": 1,
    "Ordenacao": 1,
    "Morada": "Rua da Sofia, 175 - 4º",
    "CodigoPostal": "3000 - 391 Coimbra",
    "Telefone": "239852260",
    "FAX": "239096559",
    "Email": "coimbra.diap@tribunais.org.pt",
    "Posicao": { "Lat": "40.2136684", "Lng": "-8.4335543" },
    "DadosAtividade": null
  },
  {
    "Nome": "DIAP Regional Coimbra - Secretaria Central de Coimbra",
    "Tipo": 1,
    "Ordenacao": 2,
    "Morada": "Rua da Sofia, 175 - 4º",
    "CodigoPostal": "3000 - 391 Coimbra",
    "Telefone": "239852260",
    "FAX": "239096559",
    "Email": "coimbra.diap@tribunais.org.pt",
    "Posicao": { "Lat": "40.2136684", "Lng": "-8.4335543" },
    "DadosAtividade": null
  },
  {
    "Nome": "DIAP Regional Évora - 1ª Secção - Sec Económica-Financeira e Crime Violento - Évora",
    "Tipo": 1,
    "Ordenacao": 1,
    "Morada": "Av. D. Manuel Trindade Salgueiro, 16",
    "CodigoPostal": "7005 - 869 Évora",
    "Telefone": "266760060",
    "FAX": "266092300",
    "Email": "evora.diap@tribunais.org.pt",
    "Posicao": { "Lat": "38.5754708", "Lng": "-7.9078869" },
    "DadosAtividade": null
  },
  {
    "Nome": "DIAP Regional Évora - Secretaria Central de Évora",
    "Tipo": 1,
    "Ordenacao": 2,
    "Morada": "Av. D. Manuel Trindade Salgueiro, 16",
    "CodigoPostal": "7005 - 869 Évora",
    "Telefone": "266760060",
    "FAX": "266092300",
    "Email": "evora.diap@tribunais.org.pt",
    "Posicao": { "Lat": "38.5754708", "Lng": "-7.9078869" },
    "DadosAtividade": null
  },
  {
    "Nome": "DIAP Regional Lisboa - 1ª Sec - Sec Económica-Financeira e Crime Violento - Lisboa",
    "Tipo": 1,
    "Ordenacao": 1,
    "Morada": "Av. D. João II, nº1.08.01, Edificio C D e E",
    "CodigoPostal": "1990 - 097 Lisboa",
    "Telefone": "213188600",
    "FAX": "211545160",
    "Email": "lisboa.diap@tribunais.org.pt",
    "Posicao": { "Lat": "38.77479", "Lng": "-9.09659" },
    "DadosAtividade": null
  },
  {
    "Nome": "DIAP Regional Lisboa - 2ª Sec- Sec Espec Integr Violência Doméstica - Núc Ação Penal - Lisboa",
    "Tipo": 1,
    "Ordenacao": 2,
    "Morada": "Av. D. João II, nº1.08.01, Edificio C D e E",
    "CodigoPostal": "1990 - 097 Lisboa",
    "Telefone": "213188600",
    "FAX": "211545160",
    "Email": "lisboa.diap@tribunais.org.pt",
    "Posicao": { "Lat": "38.77479", "Lng": "-9.09659" },
    "DadosAtividade": null
  },
  {
    "Nome": "DIAP Regional Lisboa - 3ª Sec - Sec Espec Integr Violência Doméstica-Núcleo Família/Criança - Lisboa",
    "Tipo": 1,
    "Ordenacao": 3,
    "Morada": "Av. D. João II, nº1.08.01, Edificio C D e E",
    "CodigoPostal": "1990 - 097 Lisboa",
    "Telefone": "213188600",
    "FAX": "211545160",
    "Email": "lisboa.diap@tribunais.org.pt",
    "Posicao": { "Lat": "38.77479", "Lng": "-9.09659" },
    "DadosAtividade": null
  },
  {
    "Nome": "DIAP Regional Lisboa - 4ª Sec - Sec Espec Integr Violência Doméstica - Núcleo Ação Penal - Seixal",
    "Tipo": 1,
    "Ordenacao": 1,
    "Morada": "Quinta dos Franceses",
    "CodigoPostal": "2840 - 499 Seixal",
    "Telefone": "212274500",
    "FAX": "211935134",
    "Email": "seixal.ministeriopublico@tribunais.org.pt",
    "Posicao": { "Lat": "38.6384779", "Lng": "-9.1068335" },
    "DadosAtividade": null
  },
  {
    "Nome": "DIAP Regional Lisboa - 5ª Sec - Sec Espec Integr Violência Doméstica-Núcleo Família/Criança - Seixal",
    "Tipo": 1,
    "Ordenacao": 2,
    "Morada": "Quinta dos Franceses",
    "CodigoPostal": "2840 - 499 Seixal",
    "Telefone": "212274500",
    "FAX": "211935134",
    "Email": "seixal.ministeriopublico@tribunais.org.pt",
    "Posicao": { "Lat": "38.6384779", "Lng": "-9.1068335" },
    "DadosAtividade": null
  },
  {
    "Nome": "DIAP Regional Lisboa - 6ª Sec - Sec Espec Integr Violência Doméstica - Núcleo Ação Penal - Sintra",
    "Tipo": 1,
    "Ordenacao": 1,
    "Morada": "Palácio da Justiça - Av. Gen Mário Firmino Miguel, 2",
    "CodigoPostal": "2714 -556 Sintra",
    "Telefone": "219100500",
    "FAX": "211545156",
    "Email": "sintra.diap@tribunais.org.pt",
    "Posicao": { "Lat": "38.8052542", "Lng": "-9.3726824" },
    "DadosAtividade": null
  },
  {
    "Nome": "DIAP Regional Lisboa - 7ª Sec - Sintra (SEIVD-NFC)",
    "Tipo": 1,
    "Ordenacao": 2,
    "Morada": "Palácio da Justiça - Av. Gen Mário Firmino Miguel, 2",
    "CodigoPostal": "2714 -556 Sintra",
    "Telefone": "219100500",
    "FAX": "211545156",
    "Email": "sintra.diap@tribunais.org.pt",
    "Posicao": { "Lat": "38.8052542", "Lng": "-9.3726824" },
    "DadosAtividade": null
  },
  {
    "Nome": "DIAP Regional Lisboa - Secretaria Central de Lisboa",
    "Tipo": 1,
    "Ordenacao": 1,
    "Morada": "Av. D. João II, nº1.08.01, Edificio C D e E",
    "CodigoPostal": "1990 - 097 Lisboa",
    "Telefone": "213188600",
    "FAX": "211545160",
    "Email": "lisboa.diap@tribunais.org.pt",
    "Posicao": { "Lat": "38.77251", "Lng": "-9.09601" },
    "DadosAtividade": null
  },
  {
    "Nome": "DIAP Regional Lisboa - Secretaria Central de Sintra",
    "Tipo": 1,
    "Ordenacao": 3,
    "Morada": "Palácio da Justiça - Av. Gen Mário Firmino Miguel, 2",
    "CodigoPostal": "2714 -556 Sintra",
    "Telefone": "219100500",
    "FAX": "211545156",
    "Email": "sintra.diap@tribunais.org.pt",
    "Posicao": { "Lat": "38.8052542", "Lng": "-9.3726824" },
    "DadosAtividade": null
  },
  {
    "Nome": "DIAP Regional Lisboa - Secretaria Central do Seixal",
    "Tipo": 1,
    "Ordenacao": 3,
    "Morada": "Quinta dos Franceses",
    "CodigoPostal": "2840 - 499 Seixal",
    "Telefone": "212274500",
    "FAX": "211935134",
    "Email": "seixal.ministeriopublico@tribunais.org.pt",
    "Posicao": { "Lat": "38.6384779", "Lng": "-9.1068335" },
    "DadosAtividade": null
  },
  {
    "Nome": "DIAP Regional Porto - 1ª Secção - Sec Económica-Financeira e Crime Violento - Porto",
    "Tipo": 1,
    "Ordenacao": 1,
    "Morada": "Rua de Camões, 155 - Porto",
    "CodigoPostal": "4049 - 074 Porto",
    "Telefone": "225513510",
    "FAX": "220949609",
    "Email": "porto.diap@tribunais.org.pt",
    "Posicao": { "Lat": "41.1532707", "Lng": "-8.6124918" },
    "DadosAtividade": null
  },
  {
    "Nome": "DIAP Regional Porto - 2ª Secção - Sec Espec Integr Violência Domèstica - Núcleo Ação Penal - Porto",
    "Tipo": 1,
    "Ordenacao": 2,
    "Morada": "Rua de Camões, 155 - Porto",
    "CodigoPostal": "4049 - 074 Porto",
    "Telefone": "225513510",
    "FAX": "220949609",
    "Email": "porto.diap@tribunais.org.pt",
    "Posicao": { "Lat": "41.1532707", "Lng": "-8.6124918" },
    "DadosAtividade": null
  },
  {
    "Nome": "DIAP Regional Porto - 3ª Sec - Sec Espec Integr Violência Doméstica - Núcleo Família/Criança - Porto",
    "Tipo": 1,
    "Ordenacao": 3,
    "Morada": "Rua de Camões, 155 - Porto",
    "CodigoPostal": "4049 - 074 Porto",
    "Telefone": "225513510",
    "FAX": "220949609",
    "Email": "porto.diap@tribunais.org.pt",
    "Posicao": { "Lat": "41.1532707", "Lng": "-8.6124918" },
    "DadosAtividade": null
  },
  {
    "Nome": "DIAP Regional Porto - 4ª Sec - Sec Espec Integr Violência Doméstica - Núcleo Ação Penal - Matosinhos",
    "Tipo": 1,
    "Ordenacao": 1,
    "Morada": "Palácio da Justiça - Rua Augusto Gomes",
    "CodigoPostal": "4450 - 053 Matosinhos",
    "Telefone": "229393600",
    "FAX": "229393698",
    "Email": "matosinhos.diap@tribunais.org.pt",
    "Posicao": { "Lat": "41.1843177", "Lng": "-8.6792797" },
    "DadosAtividade": null
  },
  {
    "Nome": "DIAP Regional Porto - 5ª Sec - Sec Espec Integr Violência Doméstica-Núcleo Fam/Criança - Matosinhos",
    "Tipo": 1,
    "Ordenacao": 2,
    "Morada": "Palácio da Justiça - Rua Augusto Gomes",
    "CodigoPostal": "4450 - 053 Matosinhos",
    "Telefone": "229393600",
    "FAX": "229393698",
    "Email": "matosinhos.diap@tribunais.org.pt",
    "Posicao": { "Lat": "41.1843177", "Lng": "-8.6792797" },
    "DadosAtividade": null
  },
  {
    "Nome": "DIAP Regional Porto - Secretaria Central de Matosinhos",
    "Tipo": 1,
    "Ordenacao": 3,
    "Morada": "Palácio da Justiça - Rua Augusto Gomes",
    "CodigoPostal": "4450 - 053 Matosinhos",
    "Telefone": "229393600",
    "FAX": "229393698",
    "Email": "matosinhos.diap@tribunais.org.pt",
    "Posicao": { "Lat": "41.1843177", "Lng": "-8.6792797" },
    "DadosAtividade": null
  },
  {
    "Nome": "DIAP Regional Porto - Secretaria Central do Porto",
    "Tipo": 1,
    "Ordenacao": 4,
    "Morada": "Rua de Camões, 155 - Porto",
    "CodigoPostal": "4049 - 074 Porto",
    "Telefone": "225513510",
    "FAX": "220949609",
    "Email": "porto.diap@tribunais.org.pt",
    "Posicao": { "Lat": "41.1532707", "Lng": "-8.6124918" },
    "DadosAtividade": null
  },
  {
    "Nome": "Grândola - Juízo Local Cível",
    "Tipo": 1,
    "Ordenacao": 1,
    "Morada": "Palácio da Justiça - Av. Jorge Nunes",
    "CodigoPostal": "7570-113 GRÂNDOLA",
    "Telefone": "269100000",
    "FAX": "269100019",
    "Email": "grandola.judicial@tribunais.org.pt",
    "Posicao": { "Lat": "38.17854", "Lng": "-8.56139" },
    "DadosAtividade": [
      { "Texto": "Pendentes em 2021:", "Valor": "221" },
      { "Texto": "Entrados em 2022:", "Valor": "210" },
      { "Texto": "Findos em 2022:", "Valor": "227" },
      { "Texto": "Pendentes em 2022:", "Valor": "204" }
    ]
  },
  {
    "Nome": "Grândola -Juízo Local Criminal",
    "Tipo": 1,
    "Ordenacao": 2,
    "Morada": "Palácio da Justiça - Av. Jorge Nunes",
    "CodigoPostal": "7570-113 GRÂNDOLA",
    "Telefone": "269100000",
    "FAX": "269100019",
    "Email": "grandola.judicial@tribunais.org.pt",
    "Posicao": { "Lat": "38.17854", "Lng": "-8.56139" },
    "DadosAtividade": [
      { "Texto": "Pendentes em 2021:", "Valor": "232" },
      { "Texto": "Entrados em 2022:", "Valor": "300" },
      { "Texto": "Findos em 2022:", "Valor": "277" },
      { "Texto": "Pendentes em 2022:", "Valor": "255" }
    ]
  },
  {
    "Nome": "Lagoa - Juízo de Comércio",
    "Tipo": 1,
    "Ordenacao": 1,
    "Morada": "Rua Dr. Fonseca de Almeida",
    "CodigoPostal": "8400-347 LAGOA",
    "Telefone": "282145900",
    "FAX": "282145906",
    "Email": "lagoa.comercio@tribunais.org.pt",
    "Posicao": { "Lat": "37.13423", "Lng": "-8.45606" },
    "DadosAtividade": [
      { "Texto": "Pendentes em 2021:", "Valor": "186" },
      { "Texto": "Entrados em 2022:", "Valor": "500" },
      { "Texto": "Findos em 2022:", "Valor": "500" },
      { "Texto": "Pendentes em 2022:", "Valor": "186" }
    ]
  },
  {
    "Nome": "Paredes de Coura - Juízo Comp. Genérica",
    "Tipo": 1,
    "Ordenacao": 1,
    "Morada": "Palácio da Justiça - Largo 5 de Outubro",
    "CodigoPostal": "4940-521  PAREDES DE COURA",
    "Telefone": "251095100",
    "FAX": "251095104",
    "Email": "pcoura@tribunais.org.pt",
    "Posicao": { "Lat": "41.9133156", "Lng": "-8.5642948" },
    "DadosAtividade": [
      { "Texto": "Pendentes em 2021:", "Valor": "231" },
      { "Texto": "Entrados em 2022:", "Valor": "168" },
      { "Texto": "Findos em 2022:", "Valor": "209" },
      { "Texto": "Pendentes em 2022:", "Valor": "190" }
    ]
  },
  {
    "Nome": "Ponte da Barca - Juízo Local Cível",
    "Tipo": 1,
    "Ordenacao": 1,
    "Morada": "Palácio da Justiça, Rua da Justiça",
    "CodigoPostal": "4980-639 PONTE DA BARCA",
    "Telefone": "258480360",
    "FAX": "258090139",
    "Email": "pbarca.judicial@tribunais.org.pt",
    "Posicao": { "Lat": "41.8076342", "Lng": "-8.4172156" },
    "DadosAtividade": [
      { "Texto": "Pendentes em 2021:", "Valor": "278" },
      { "Texto": "Entrados em 2022:", "Valor": "256" },
      { "Texto": "Findos em 2022:", "Valor": "313" },
      { "Texto": "Pendentes em 2022:", "Valor": "221" }
    ]
  },
  {
    "Nome": "Ponte de Lima - Juízo Local Cível",
    "Tipo": 1,
    "Ordenacao": 1,
    "Morada": "Palácio da Justiça - Av. António Feijó",
    "CodigoPostal": "4990-029   PONTE DE LIMA",
    "Telefone": "258900520",
    "FAX": "258900559",
    "Email": "plima.judicial@tribunais.org.pt",
    "Posicao": { "Lat": "41.76558", "Lng": "-8.57873" },
    "DadosAtividade": [
      { "Texto": "Pendentes em 2021:", "Valor": "870" },
      { "Texto": "Entrados em 2022:", "Valor": "694" },
      { "Texto": "Findos em 2022:", "Valor": "694" },
      { "Texto": "Pendentes em 2022:", "Valor": "870" }
    ]
  },
  {
    "Nome": "Ponte de Lima - Juízo Local Criminal",
    "Tipo": 1,
    "Ordenacao": 2,
    "Morada": "Palácio da Justiça - Av. António Feijó",
    "CodigoPostal": "4990-029   PONTE DE LIMA",
    "Telefone": "258900520",
    "FAX": "258900559",
    "Email": "plima.judicial@tribunais.org.pt",
    "Posicao": { "Lat": "41.76558", "Lng": "-8.57873" },
    "DadosAtividade": [
      { "Texto": "Pendentes em 2021:", "Valor": "133" },
      { "Texto": "Entrados em 2022:", "Valor": "216" },
      { "Texto": "Findos em 2022:", "Valor": "249" },
      { "Texto": "Pendentes em 2022:", "Valor": "100" }
    ]
  },
  {
    "Nome": "Santiago do Cacém - Juízo Local Cível",
    "Tipo": 1,
    "Ordenacao": 1,
    "Morada": "Palácio da Justiça - Av. D. Nuno Álvares Pereira",
    "CodigoPostal": "7540-104 SANTIAGO DO CACÉM",
    "Telefone": "269100020",
    "FAX": "269100049",
    "Email": "santcacem.judicial@tribunais.org.pt",
    "Posicao": { "Lat": "38.01285", "Lng": "-8.69281" },
    "DadosAtividade": [
      { "Texto": "Pendentes em 2021:", "Valor": "248" },
      { "Texto": "Entrados em 2022:", "Valor": "249" },
      { "Texto": "Findos em 2022:", "Valor": "225" },
      { "Texto": "Pendentes em 2022:", "Valor": "272" }
    ]
  },
  {
    "Nome": "Santiago do Cacém - Juízo Local Criminal",
    "Tipo": 1,
    "Ordenacao": 2,
    "Morada": "Palácio da Justiça - Av. D. Nuno Álvares Pereira",
    "CodigoPostal": "7540-104 SANTIAGO DO CACÉM",
    "Telefone": "269100020",
    "FAX": "269100049",
    "Email": "santcacem.judicial@tribunais.org.pt",
    "Posicao": { "Lat": "38.01285", "Lng": "-8.69281" },
    "DadosAtividade": [
      { "Texto": "Pendentes em 2021:", "Valor": "305" },
      { "Texto": "Entrados em 2022:", "Valor": "394" },
      { "Texto": "Findos em 2022:", "Valor": "400" },
      { "Texto": "Pendentes em 2022:", "Valor": "299" }
    ]
  },
  {
    "Nome": "Serv. Ministério Público da Comarca Açores - DIAP - Angra Heroísmo",
    "Tipo": 1,
    "Ordenacao": 1,
    "Morada": "Palácio da Justiça - Praça Almeida Garrett",
    "CodigoPostal": "9701-864 Angra do Heroísmo",
    "Telefone": "295 204 600",
    "FAX": "295 093 508",
    "Email": "angrah.ministeriopublico@tribunais.org.pt",
    "Posicao": { "Lat": "38.656138", "Lng": "-27.213881" },
    "DadosAtividade": null
  },
  {
    "Nome": "Serv. Ministério Público da Comarca Açores - DIAP - Horta",
    "Tipo": 1,
    "Ordenacao": 1,
    "Morada": "Palácio da Justiça - Largo Luís de Camões",
    "CodigoPostal": "9901-863 Horta",
    "Telefone": "292 208 320",
    "FAX": "292 090 008",
    "Email": "horta.ministeriopublico@tribunais.org.pt",
    "Posicao": { "Lat": "38.53461291197178", "Lng": "-28.627452850341797" },
    "DadosAtividade": null
  },
  {
    "Nome": "Serv. Ministério Público da Comarca Açores - DIAP - Ponta Delgada",
    "Tipo": 1,
    "Ordenacao": 1,
    "Morada": "Rua Conselheiro Luís Bettencourt",
    "CodigoPostal": "9500 - 058 Ponta Delgada",
    "Telefone": "296 209 460",
    "FAX": "296 209 468",
    "Email": "pdelgada.diap@tribunais.org.pt",
    "Posicao": { "Lat": "37.738964", "Lng": "-25.671009" },
    "DadosAtividade": null
  },
  {
    "Nome": "Serv. Ministério Público da Comarca Açores - DIAP - Ribeira Grande",
    "Tipo": 1,
    "Ordenacao": 1,
    "Morada": "Palácio da Justiça - Largo das Freiras",
    "CodigoPostal": "9600-511  Ribeira Grande",
    "Telefone": "296 470 700",
    "FAX": "296 470 728",
    "Email": "ribgrande.ministeriopublico@tribunais.org.pt",
    "Posicao": { "Lat": "37.82178544741226", "Lng": "-25.523128509521484" },
    "DadosAtividade": null
  },
  {
    "Nome": "Serv. Ministério Público da Comarca Açores - DIAP - Santa Cruz da Graciosa",
    "Tipo": 1,
    "Ordenacao": 1,
    "Morada": "Palácio da Justiça - Rebentão",
    "CodigoPostal": "9880-316  Santa Cruz da Graciosa",
    "Telefone": "295 730 100",
    "FAX": "295 093 528",
    "Email": "stacgrac.ministeriopublico@tribunais.org.pt",
    "Posicao": { "Lat": "39.08586210609255", "Lng": "-28.00613522529602" },
    "DadosAtividade": null
  },
  {
    "Nome": "Serv. Ministério Público da Comarca Açores - DIAP - Santa Cruz das Flores",
    "Tipo": 1,
    "Ordenacao": 1,
    "Morada": "Palácio da Justiça - Rua da Esperança",
    "CodigoPostal": "9970-320  Santa Cruz das Flores",
    "Telefone": "292 590 220",
    "FAX": "292 590 228",
    "Email": "stacflores.ministeriopublico@tribunais.org.pt",
    "Posicao": { "Lat": "39.452730347833345", "Lng": "-31.127593517303467" },
    "DadosAtividade": null
  },
  {
    "Nome": "Serv. Ministério Público da Comarca Açores - DIAP - São Roque do Pico",
    "Tipo": 1,
    "Ordenacao": 1,
    "Morada": "Cais do Pico",
    "CodigoPostal": "9940-355  São Roque do Pico",
    "Telefone": "292 648 060",
    "FAX": "292 648 068",
    "Email": "sroquepico.ministeriopublico@tribunais.org.pt",
    "Posicao": { "Lat": "38.52579191858759", "Lng": "-28.319202661514282" },
    "DadosAtividade": null
  },
  {
    "Nome": "Serv. Ministério Público da Comarca Açores - DIAP - Velas",
    "Tipo": 1,
    "Ordenacao": 1,
    "Morada": "Palácio da Justiça - Rua de Santo André",
    "CodigoPostal": "9800-537  Velas - S. Jorge",
    "Telefone": "295 430 170",
    "FAX": "295 430 178",
    "Email": "velas.ministeriopublico@tribunais.org.pt",
    "Posicao": { "Lat": "38.679848167107", "Lng": "-28.205101490020752" },
    "DadosAtividade": null
  },
  {
    "Nome": "Serv. Ministério Público da Comarca Açores - DIAP - Vila do Porto",
    "Tipo": 1,
    "Ordenacao": 1,
    "Morada": "Avenida de Santa Maria, 16",
    "CodigoPostal": "9580-501 VILA DO PORTO",
    "Telefone": "296 090 010",
    "FAX": "296 090 018",
    "Email": "vporto.ministeriopublico@tribunais.org.pt",
    "Posicao": { "Lat": "36.958957", "Lng": "-25.146515" },
    "DadosAtividade": null
  },
  {
    "Nome": "Serv. Ministério Público da Comarca Açores - DIAP - Vila Franca do Campo",
    "Tipo": 1,
    "Ordenacao": 1,
    "Morada": "Rua do Relvão, n.º 25",
    "CodigoPostal": "9680-147  Vila Franca do Campo",
    "Telefone": "296 539 070",
    "FAX": "296 090 198",
    "Email": "vfcampo.ministeriopublico@tribunais.org.pt",
    "Posicao": { "Lat": "37.71539922820929", "Lng": "-25.434218645095825" },
    "DadosAtividade": null
  },
  {
    "Nome": "Serv. Ministério Público da Comarca Açores - Procuradoria -  Juízo Local Criminal  - AHeroísmo",
    "Tipo": 1,
    "Ordenacao": 2,
    "Morada": "Palácio da Justiça - Praça Almeida Garrett",
    "CodigoPostal": "9701-864 Angra do Heroísmo",
    "Telefone": "295204600",
    "FAX": "295093508",
    "Email": "angrah.ministeriopublico@tribunais.org.pt",
    "Posicao": { "Lat": "38.656138", "Lng": "-27.213881" },
    "DadosAtividade": null
  },
  {
    "Nome": "Serv. Ministério Público da Comarca Açores - Procuradoria - Juízo Central Cível  - Angra Heroísmo",
    "Tipo": 1,
    "Ordenacao": 3,
    "Morada": "Palácio da Justiça - Praça Almeida Garrett",
    "CodigoPostal": "9701-864 Angra do Heroísmo",
    "Telefone": "295 204 600",
    "FAX": "295 093 508",
    "Email": "angrah.ministeriopublico@tribunais.org.pt",
    "Posicao": { "Lat": "38.656138", "Lng": "-27.213881" },
    "DadosAtividade": null
  },
  {
    "Nome": "Serv. Ministério Público da Comarca Açores - Procuradoria - Juízo Central Cível - Ponta Delgada",
    "Tipo": 1,
    "Ordenacao": 2,
    "Morada": "Rua Conselheiro Luís Bettencourt",
    "CodigoPostal": "9500 - 058 Ponta Delgada",
    "Telefone": "296 209 460",
    "FAX": "296 209 469",
    "Email": "pdelgada.ministeriopublico@tribunais.org.pt",
    "Posicao": { "Lat": "37.738964", "Lng": "-25.671009" },
    "DadosAtividade": null
  },
  {
    "Nome": "Serv. Ministério Público da Comarca Açores - Procuradoria - Juízo Central Criminal - Ponta Delgada",
    "Tipo": 1,
    "Ordenacao": 3,
    "Morada": "Rua Conselheiro Luís Bettencourt",
    "CodigoPostal": "9500 - 058 Ponta Delgada",
    "Telefone": "296 209 460",
    "FAX": "296 209 469",
    "Email": "pdelgada.ministeriopublico@tribunais.org.pt",
    "Posicao": { "Lat": "37.738964", "Lng": "-25.671009" },
    "DadosAtividade": null
  },
  {
    "Nome": "Serv. Ministério Público da Comarca Açores - Procuradoria - Juízo Comp. Genérica - Horta",
    "Tipo": 1,
    "Ordenacao": 2,
    "Morada": "Palácio da Justiça - Largo Luís de Camões",
    "CodigoPostal": "9901-863 Horta",
    "Telefone": "292 208 320",
    "FAX": "292 090 008",
    "Email": "horta.ministeriopublico@tribunais.org.pt",
    "Posicao": { "Lat": "38.53461291197178", "Lng": "-28.627452850341797" },
    "DadosAtividade": null
  },
  {
    "Nome": "Serv. Ministério Público da Comarca Açores - Procuradoria - Juízo Comp. Genérica - Velas",
    "Tipo": 1,
    "Ordenacao": 2,
    "Morada": "Palácio da Justiça - Rua de Santo André",
    "CodigoPostal": "9800-537  Velas - S. Jorge",
    "Telefone": "295 430 170",
    "FAX": "295 430 178",
    "Email": "velas.ministeriopublico@tribunais.org.pt",
    "Posicao": { "Lat": "38.679848167107", "Lng": "-28.205101490020752" },
    "DadosAtividade": null
  },
  {
    "Nome": "Serv. Ministério Público da Comarca Açores - Procuradoria - Juízo Comp.Genérica - São Roque do Pico",
    "Tipo": 1,
    "Ordenacao": 2,
    "Morada": "Cais do Pico",
    "CodigoPostal": "9940-355  São Roque do Pico",
    "Telefone": "292 648 060",
    "FAX": "292 648 068",
    "Email": "sroquepico.ministeriopublico@tribunais.org.pt",
    "Posicao": { "Lat": "38.52579191858759", "Lng": "-28.319202661514282" },
    "DadosAtividade": null
  },
  {
    "Nome": "Serv. Ministério Público da Comarca Açores - Procuradoria - Juízo Comp.Genérica - Sta. Cruz Flores",
    "Tipo": 1,
    "Ordenacao": 2,
    "Morada": "Palácio da Justiça - Rua da Esperança",
    "CodigoPostal": "9970-320  Santa Cruz das Flores",
    "Telefone": "292 590 220",
    "FAX": "292 590 228",
    "Email": "stacflores.ministeriopublico@tribunais.org.pt",
    "Posicao": { "Lat": "39.452730347833345", "Lng": "-31.127593517303467" },
    "DadosAtividade": null
  },
  {
    "Nome": "Serv. Ministério Público da Comarca Açores - Procuradoria - Juízo Comp.Genérica-Sta. Cruz Graciosa",
    "Tipo": 1,
    "Ordenacao": 2,
    "Morada": "Palácio da Justiça - Rebentão",
    "CodigoPostal": "9880-316  Santa Cruz da Graciosa",
    "Telefone": "295 730 100",
    "FAX": "295 093 528",
    "Email": "stacgrac.ministeriopublico@tribunais.org.pt",
    "Posicao": { "Lat": "39.08586210609255", "Lng": "-28.00613522529602" },
    "DadosAtividade": null
  },
  {
    "Nome": "Serv. Ministério Público da Comarca Açores - Procuradoria - Juízo Comp.Genérica-Vila Franca do Campo",
    "Tipo": 1,
    "Ordenacao": 2,
    "Morada": "Rua do Relvão, n.º 25",
    "CodigoPostal": "9680-147  Vila Franca do Campo",
    "Telefone": "296 539 070",
    "FAX": "296 090 198",
    "Email": "vfcampo.ministeriopublico@tribunais.org.pt",
    "Posicao": { "Lat": "37.71539922820929", "Lng": "-25.434218645095825" },
    "DadosAtividade": null
  },
  {
    "Nome": "Serv. Ministério Público da Comarca Açores - Procuradoria - Juízo Família e Menores - Ponta Delgada",
    "Tipo": 1,
    "Ordenacao": 1,
    "Morada": "Rua Marquês da Praia e Monforte, 33-35",
    "CodigoPostal": "9500-089 Ponta Delgada",
    "Telefone": "296 305 950",
    "FAX": "296 209 469",
    "Email": "pdelgada.ministeriopublico@tribunais.org.pt",
    "Posicao": { "Lat": "37.74245233311513", "Lng": "-25.670100196434077" },
    "DadosAtividade": null
  },
  {
    "Nome": "Serv. Ministério Público da Comarca Açores - Procuradoria - Juízo Local Criminal - Praia da Vitória",
    "Tipo": 1,
    "Ordenacao": 1,
    "Morada": "Palácio da Justiça - Largo do Conde da Praia da Vitória",
    "CodigoPostal": "9760-438  Praia da Vitória",
    "Telefone": "295540360",
    "FAX": "295093518",
    "Email": "praiav.ministeriopublico@tribunais.org.pt",
    "Posicao": { "Lat": "38.7286521206653", "Lng": "-27.06632137298584" },
    "DadosAtividade": null
  },
  {
    "Nome": "Serv. Ministério Público da Comarca Açores - Procuradoria - Juízo Trabalho - Ponta Delgada",
    "Tipo": 1,
    "Ordenacao": 2,
    "Morada": "Rua Marquês da Praia e Monforte, 31-33",
    "CodigoPostal": "9500-089 Ponta Delgada",
    "Telefone": "296 090 150",
    "FAX": "296 209 469",
    "Email": "pdelgada.ministeriopublico@tribunais.org.pt",
    "Posicao": { "Lat": "37.74245233311513", "Lng": "-25.670100196434077" },
    "DadosAtividade": null
  },
  {
    "Nome": "Serv. Ministério Público da Comarca Açores - Procuradoria-Juízo Competência Genérica - Vila do Porto",
    "Tipo": 1,
    "Ordenacao": 2,
    "Morada": "Avenida de Santa Maria, 16",
    "CodigoPostal": "9580-501 VILA DO PORTO",
    "Telefone": "296 090 010",
    "FAX": "296 090 018",
    "Email": "vporto.ministeriopublico@tribunais.org.pt",
    "Posicao": { "Lat": "36.958957", "Lng": "-25.146515" },
    "DadosAtividade": null
  },
  {
    "Nome": "Serv. Ministério Público da Comarca Açores -DIAP - Praia da Vitória",
    "Tipo": 1,
    "Ordenacao": 2,
    "Morada": "Palácio da Justiça - Largo do Conde da Praia da Vitória",
    "CodigoPostal": "9760-438  Praia da Vitória",
    "Telefone": "295 540 360",
    "FAX": "295 093 518",
    "Email": "praiav.ministeriopublico@tribunais.org.pt",
    "Posicao": { "Lat": "38.7286521206653", "Lng": "-27.06632137298584" },
    "DadosAtividade": null
  },
  {
    "Nome": "Serv. Ministério Público da Comarca Aveiro - DIAP -  Aveiro",
    "Tipo": 1,
    "Ordenacao": 1,
    "Morada": "R. Principe Perfeito, 4",
    "CodigoPostal": "3810-134 Aveiro",
    "Telefone": "234 891 130",
    "FAX": "234 891 169",
    "Email": "aveiro.diap@tribunais.org.pt",
    "Posicao": { "Lat": "40.6387361291511", "Lng": "-8.65387111902237" },
    "DadosAtividade": null
  },
  {
    "Nome": "Serv. Ministério Público da Comarca Aveiro - DIAP - Águeda",
    "Tipo": 1,
    "Ordenacao": 1,
    "Morada": "R. Fernando Caldeira",
    "CodigoPostal": "3750 - 147 Águeda",
    "Telefone": "234 610 310",
    "FAX": "234 118 089",
    "Email": "agueda.ministeriopublico@tribunais.org.pt",
    "Posicao": { "Lat": "40.5737151572528", "Lng": "-8.44582557678223" },
    "DadosAtividade": null
  },
  {
    "Nome": "Serv. Ministério Público da Comarca Aveiro - DIAP - Albergaria-a-Velha",
    "Tipo": 1,
    "Ordenacao": 1,
    "Morada": "Praça Ferreira Tavares",
    "CodigoPostal": "3850-053  Albergaria-a-Velha",
    "Telefone": "234 520 240",
    "FAX": "234 520 258",
    "Email": "albvelha.ministeriopublico@tribunais.org.pt",
    "Posicao": { "Lat": "40.6912875423481", "Lng": "-8.47936391830444" },
    "DadosAtividade": null
  },
  {
    "Nome": "Serv. Ministério Público da Comarca Aveiro - DIAP - Anadia",
    "Tipo": 1,
    "Ordenacao": 1,
    "Morada": "Praça Visconde Seabra",
    "CodigoPostal": "3780-211 Anadia",
    "Telefone": "231 100 010",
    "FAX": "231 100 038",
    "Email": "anadia.ministeriopublico@tribunais.org.pt",
    "Posicao": { "Lat": "40.4419263861893", "Lng": "-8.43751341104507" },
    "DadosAtividade": null
  },
  {
    "Nome": "Serv. Ministério Público da Comarca Aveiro - DIAP - Arouca",
    "Tipo": 1,
    "Ordenacao": 1,
    "Morada": "Palácio da Justiça - R. Dr. Gil da Costa",
    "CodigoPostal": "4540-134  Arouca",
    "Telefone": "256 940 000",
    "FAX": "256 090 208",
    "Email": "arouca.ministeriopublico@tribunais.org.pt",
    "Posicao": { "Lat": "40.9312013654966", "Lng": "-8.2472562789917" },
    "DadosAtividade": null
  },
  {
    "Nome": "Serv. Ministério Público da Comarca Aveiro - DIAP - Castelo de Paiva",
    "Tipo": 1,
    "Ordenacao": 1,
    "Morada": "Palácio da Justiça - Largo Prof. Joaquim  Quintas",
    "CodigoPostal": "4550-100  Castelo de Paiva",
    "Telefone": "255 690 560",
    "FAX": "255 690 578",
    "Email": "cpaiva.ministeriopublico@tribunais.org.pt",
    "Posicao": { "Lat": "41.0415559598598", "Lng": "-8.27031254768372" },
    "DadosAtividade": null
  },
  {
    "Nome": "Serv. Ministério Público da Comarca Aveiro - DIAP - Espinho",
    "Tipo": 1,
    "Ordenacao": 1,
    "Morada": "Palácio da Justiça - Av. 24 - Apart. 750",
    "CodigoPostal": "4501-951  Espinho",
    "Telefone": "227 331 330",
    "FAX": "220 949 268",
    "Email": "espinho.ministeriopublico@tribunais.org.pt",
    "Posicao": { "Lat": "41.0078965755373", "Lng": "-8.6376316845417" },
    "DadosAtividade": null
  },
  {
    "Nome": "Serv. Ministério Público da Comarca Aveiro - DIAP - Estarreja",
    "Tipo": 1,
    "Ordenacao": 1,
    "Morada": "Palácio da Justiça, Av. 25 de Abril- Beduíno",
    "CodigoPostal": "3864-022 Estarreja",
    "Telefone": "234 810 500        ",
    "FAX": "234 810 908",
    "Email": "estarreja.ministeriopublico@tribunais.org.pt",
    "Posicao": { "Lat": "40.7535803440098", "Lng": "-8.56833815574646" },
    "DadosAtividade": null
  },
  {
    "Nome": "Serv. Ministério Público da Comarca Aveiro - DIAP - Ílhavo",
    "Tipo": 1,
    "Ordenacao": 1,
    "Morada": "Av. Nossa Senhora do Pranto",
    "CodigoPostal": "3830-046 Ílhavo",
    "Telefone": "234 118 320",
    "FAX": "234 118 338",
    "Email": "ilhavo.ministeriopublico@tribunais.org.pt",
    "Posicao": { "Lat": "40.5970262410744", "Lng": "-8.66662502288818" },
    "DadosAtividade": null
  },
  {
    "Nome": "Serv. Ministério Público da Comarca Aveiro - DIAP - Mealhada",
    "Tipo": 1,
    "Ordenacao": 1,
    "Morada": "Rua Dr. José Cerveira Lebre, n.º 1",
    "CodigoPostal": "3050-340  Mealhada",
    "Telefone": "231 209 335",
    "FAX": "231 093 548",
    "Email": "mealhada.ministeriopublico@tribunais.org.pt",
    "Posicao": { "Lat": "40.3778797278826", "Lng": "-8.4516379237175" },
    "DadosAtividade": null
  },
  {
    "Nome": "Serv. Ministério Público da Comarca Aveiro - DIAP - Oliveira de Azeméis",
    "Tipo": 1,
    "Ordenacao": 1,
    "Morada": "Av. António José de Almeida",
    "CodigoPostal": "3720-039  Oliveira de Azeméis",
    "Telefone": "256 600 517",
    "FAX": "256 600 569",
    "Email": "oazemeis.ministeriopublico@tribunais.org.pt",
    "Posicao": { "Lat": "40.839119", "Lng": "-8.47787" },
    "DadosAtividade": null
  },
  {
    "Nome": "Serv. Ministério Público da Comarca Aveiro - DIAP - Oliveira do Bairro",
    "Tipo": 1,
    "Ordenacao": 1,
    "Morada": "Rua do Foral,  20",
    "CodigoPostal": "3770-852  Oliveira do Bairro",
    "Telefone": "234 118 370",
    "FAX": "234 118 369",
    "Email": "obairro.ministeriopublico@tribunais.org.pt",
    "Posicao": { "Lat": "40.51649893283121", "Lng": "-8.494888544082641" },
    "DadosAtividade": null
  },
  {
    "Nome": "Serv. Ministério Público da Comarca Aveiro - DIAP - Ovar",
    "Tipo": 1,
    "Ordenacao": 1,
    "Morada": "Rua Alexandre Herculano",
    "CodigoPostal": "3880-146 Ovar",
    "Telefone": "256 100 730",
    "FAX": "256 100 758",
    "Email": "ovar.ministeriopublico@tribunais.org.pt",
    "Posicao": { "Lat": "40.8597848889079", "Lng": "-8.62414419651031" },
    "DadosAtividade": null
  },
  {
    "Nome": "Serv. Ministério Público da Comarca Aveiro - DIAP - S. João Madeira",
    "Tipo": 1,
    "Ordenacao": 1,
    "Morada": "Palácio da Justiça - Rua João de Deus, n.º 160",
    "CodigoPostal": "3701-501  São João da Madeira",
    "Telefone": "256 200 550",
    "FAX": "256 090 198",
    "Email": "sjmadeira.ministeriopublico@tribunais.org.pt",
    "Posicao": { "Lat": "40.897469", "Lng": "-8.490232" },
    "DadosAtividade": null
  },
  {
    "Nome": "Serv. Ministério Público da Comarca Aveiro - DIAP - Santa Maria da Feira",
    "Tipo": 1,
    "Ordenacao": 1,
    "Morada": "Palácio da Justiça, Rua Dr. Cândido de Pinho, 18-30",
    "CodigoPostal": "4520-211  Santa Maria da Feira",
    "Telefone": "256 371 811",
    "FAX": "256 090 138",
    "Email": "feira.ministeriopublico@tribunais.org.pt",
    "Posicao": { "Lat": "40.929075", "Lng": "-8.546356" },
    "DadosAtividade": null
  },
  {
    "Nome": "Serv. Ministério Público da Comarca Aveiro - DIAP - Vagos ",
    "Tipo": 1,
    "Ordenacao": 1,
    "Morada": "Largo Branco de Melo",
    "CodigoPostal": "3840-234  Vagos",
    "Telefone": "234 118 400",
    "FAX": "234 118 418",
    "Email": "vagos.ministeriopublico@tribunais.org.pt",
    "Posicao": { "Lat": "40.553159467291", "Lng": "-8.68039011955261" },
    "DadosAtividade": null
  },
  {
    "Nome": "Serv. Ministério Público da Comarca Aveiro - DIAP - Vale de Cambra",
    "Tipo": 1,
    "Ordenacao": 1,
    "Morada": "Palácio da Justiça - Av. Domingos Almeida Brandão",
    "CodigoPostal": "3750-251  Vale de Cambra",
    "Telefone": "256 410 900",
    "FAX": "256 090 148",
    "Email": "vcambra.ministeriopublico@tribunais.org.pt",
    "Posicao": { "Lat": "40.8491055350974", "Lng": "-8.39235842227936" },
    "DadosAtividade": null
  },
  {
    "Nome": "Serv. Ministério Público da Comarca Aveiro - Procuradoria - Juízo Comp. Genérica - Castelo de Paiva",
    "Tipo": 1,
    "Ordenacao": 2,
    "Morada": "Palácio da Justiça - Largo Prof. Joaquim  Quintas",
    "CodigoPostal": "4550-100  Castelo de Paiva",
    "Telefone": "255 690 560",
    "FAX": "255 690 578",
    "Email": "cpaiva.ministeriopublico@tribunais.org.pt",
    "Posicao": { "Lat": "41.0415559598598", "Lng": "-8.27031254768372" },
    "DadosAtividade": null
  },
  {
    "Nome": "Serv. Ministério Público da Comarca Aveiro - Procuradoria - Juízo Comp. Genérica - Espinho",
    "Tipo": 1,
    "Ordenacao": 2,
    "Morada": "Palácio da Justiça - Av. 24 - Apart. 750",
    "CodigoPostal": "4501-951  Espinho",
    "Telefone": "227 331 330",
    "FAX": "220 949 268",
    "Email": "espinho.ministeriopublico@tribunais.org.pt",
    "Posicao": { "Lat": "41.0078965755373", "Lng": "-8.6376316845417" },
    "DadosAtividade": null
  },
  {
    "Nome": "Serv. Ministério Público da Comarca Aveiro - Procuradoria - Juízo Comp. Genérica - Estarreja",
    "Tipo": 1,
    "Ordenacao": 2,
    "Morada": "Palácio da Justiça, Av. 25 de Abril- Beduíno",
    "CodigoPostal": "3864-022 Estarreja",
    "Telefone": "234 810 500        ",
    "FAX": "234 810 908",
    "Email": "estarreja.ministeriopublico@tribunais.org.pt",
    "Posicao": { "Lat": "40.7535803440098", "Lng": "-8.56833815574646" },
    "DadosAtividade": null
  },
  {
    "Nome": "Serv. Ministério Público da Comarca Aveiro - Procuradoria - Juízo Comp. Genérica - Mealhada",
    "Tipo": 1,
    "Ordenacao": 2,
    "Morada": "Rua Dr. José Cerveira Lebre, n.º 1",
    "CodigoPostal": "3050-340  Mealhada",
    "Telefone": "231 209 335",
    "FAX": "231 093 548",
    "Email": "mealhada.ministeriopublico@tribunais.org.pt",
    "Posicao": { "Lat": "40.3778797278826", "Lng": "-8.4516379237175" },
    "DadosAtividade": null
  },
  {
    "Nome": "Serv. Ministério Público da Comarca Aveiro - Procuradoria - Juízo Comp. Genérica - Vagos",
    "Tipo": 1,
    "Ordenacao": 2,
    "Morada": "Largo Branco de Melo",
    "CodigoPostal": "3840-234  Vagos",
    "Telefone": "234 118 400",
    "FAX": "234 118 418",
    "Email": "vagos.ministeriopublico@tribunais.org.pt",
    "Posicao": { "Lat": "40.553159467291", "Lng": "-8.68039011955261" },
    "DadosAtividade": null
  },
  {
    "Nome": "Serv. Ministério Público da Comarca Aveiro - Procuradoria - Juízo Comp. Genérica - Vale de Cambra",
    "Tipo": 1,
    "Ordenacao": 2,
    "Morada": "Palácio da Justiça - Av. Domingos Almeida Brandão",
    "CodigoPostal": "3750-251  Vale de Cambra",
    "Telefone": "256 410 900",
    "FAX": "256 090 148",
    "Email": "vcambra.ministeriopublico@tribunais.org.pt",
    "Posicao": { "Lat": "40.8491055350974", "Lng": "-8.39235842227936" },
    "DadosAtividade": null
  },
  {
    "Nome": "Serv. Ministério Público da Comarca Aveiro - Procuradoria - Juízo Comp. Genérica- Ílhavo",
    "Tipo": 1,
    "Ordenacao": 2,
    "Morada": "Av. Nossa Senhora do Pranto",
    "CodigoPostal": "3830-046 Ílhavo",
    "Telefone": "234 118 320",
    "FAX": "234 118 338",
    "Email": "ilhavo.ministeriopublico@tribunais.org.pt",
    "Posicao": { "Lat": "40.5970262410744", "Lng": "-8.66662502288818" },
    "DadosAtividade": null
  },
  {
    "Nome": "Serv. Ministério Público da Comarca Aveiro - Procuradoria - Juízo Comp.Genérica - Albergaria-a-Velha",
    "Tipo": 1,
    "Ordenacao": 2,
    "Morada": "Praça Ferreira Tavares",
    "CodigoPostal": "3850-053  Albergaria-a-Velha",
    "Telefone": "234 520 240",
    "FAX": "234 520 258",
    "Email": "albvelha.ministeriopublico@tribunais.org.pt",
    "Posicao": { "Lat": "40.6912875423481", "Lng": "-8.47936391830444" },
    "DadosAtividade": null
  },
  {
    "Nome": "Serv. Ministério Público da Comarca Aveiro - Procuradoria - Juízo Comp.Genérica - Anadia",
    "Tipo": 1,
    "Ordenacao": 2,
    "Morada": "Praça Visconde Seabra",
    "CodigoPostal": "3780-211 Anadia",
    "Telefone": "231 100 010",
    "FAX": "231 100 038",
    "Email": "anadia.ministeriopublico@tribunais.org.pt",
    "Posicao": { "Lat": "40.4419263861893", "Lng": "-8.43751341104507" },
    "DadosAtividade": null
  },
  {
    "Nome": "Serv. Ministério Público da Comarca Aveiro - Procuradoria - Juízo Comp.Genérica - Arouca",
    "Tipo": 1,
    "Ordenacao": 2,
    "Morada": "Palácio da Justiça - R. Dr. Gil da Costa",
    "CodigoPostal": "4540-134  Arouca",
    "Telefone": "256 940 000",
    "FAX": "256 090 208",
    "Email": "arouca.ministeriopublico@tribunais.org.pt",
    "Posicao": { "Lat": "40.9312013654966", "Lng": "-8.2472562789917" },
    "DadosAtividade": null
  },
  {
    "Nome": "Serv. Ministério Público da Comarca Aveiro - Procuradoria - Juízo Comp.Genérica - Oliveira do Bairro",
    "Tipo": 1,
    "Ordenacao": 2,
    "Morada": "Rua do Foral,  20",
    "CodigoPostal": "3770-852  Oliveira do Bairro",
    "Telefone": "234 118 370",
    "FAX": "234 118 369",
    "Email": "obairro.ministeriopublico@tribunais.org.pt",
    "Posicao": { "Lat": "40.51649893283121", "Lng": "-8.494888544082641" },
    "DadosAtividade": null
  },
  {
    "Nome": "Serv. Ministério Público da Comarca Aveiro - Procuradoria - Juízo Comp.Genérica - S. João Madeira",
    "Tipo": 1,
    "Ordenacao": 2,
    "Morada": "Palácio da Justiça - Rua João de Deus, n.º 160",
    "CodigoPostal": "3701-501  São João da Madeira",
    "Telefone": "256 200 550",
    "FAX": "256 090 198",
    "Email": "sjmadeira.ministeriopublico@tribunais.org.pt",
    "Posicao": { "Lat": "40.897469", "Lng": "-8.490232" },
    "DadosAtividade": null
  },
  {
    "Nome": "Serv. Ministério Público da Comarca Aveiro - Procuradoria - Juízo de Família e Menores - Aveiro",
    "Tipo": 1,
    "Ordenacao": 1,
    "Morada": "Rua Eça de Queiróz, 13-15",
    "CodigoPostal": "3810-109 Aveiro",
    "Telefone": "234 118 110",
    "FAX": "234 405 399",
    "Email": "aveiro.familia.ministeriopublico@tribunais.org.pt",
    "Posicao": { "Lat": "40.6382150791084", "Lng": "-8.65123718976974" },
    "DadosAtividade": null
  },
  {
    "Nome": "Serv. Ministério Público da Comarca Aveiro - Procuradoria - Juízo de Família e Menores - Estarreja",
    "Tipo": 1,
    "Ordenacao": 3,
    "Morada": "Palácio da Justiça, Av. 25 de Abril- Beduíno",
    "CodigoPostal": "3864-022 Estarreja",
    "Telefone": "234 810 500        ",
    "FAX": "234 810 908",
    "Email": "estarreja.ministeriopublico@tribunais.org.pt",
    "Posicao": { "Lat": "40.7535803440098", "Lng": "-8.56833815574646" },
    "DadosAtividade": null
  },
  {
    "Nome": "Serv. Ministério Público da Comarca Aveiro - Procuradoria - Juízo do Trabalho - Águeda",
    "Tipo": 1,
    "Ordenacao": 1,
    "Morada": "R. do Outeiro",
    "CodigoPostal": "3750-136 Águeda",
    "Telefone": "234 118 060",
    "FAX": "234 118 089",
    "Email": "agueda.trabalho.ministeriopublico@tribunais.org.pt",
    "Posicao": { "Lat": "40.5732913923323", "Lng": "-8.4455680847168" },
    "DadosAtividade": null
  },
  {
    "Nome": "Serv. Ministério Público da Comarca Aveiro - Procuradoria - Juízo do Trabalho - Aveiro",
    "Tipo": 1,
    "Ordenacao": 1,
    "Morada": "Av. Dr. Lourenço Peixinho, 54  2º/3º",
    "CodigoPostal": "3800-159 Aveiro",
    "Telefone": "234 118 230",
    "FAX": "234 405 399",
    "Email": "aveiro.trabalho.ministeriopublico@tribunais.org.pt",
    "Posicao": { "Lat": "40.64338794883172", "Lng": "-8.645682334899902" },
    "DadosAtividade": null
  },
  {
    "Nome": "Serv. Ministério Público da Comarca Aveiro - Procuradoria - Juízo do Trabalho - S. Maria da Feira",
    "Tipo": 1,
    "Ordenacao": 2,
    "Morada": "Palácio da Justiça, Rua Dr. Cândido de Pinho, 18-30",
    "CodigoPostal": "4520-211  Santa Maria da Feira",
    "Telefone": "256371811",
    "FAX": "256090138",
    "Email": "feira.ministeriopublico@tribunais.org.pt",
    "Posicao": { "Lat": "40.929075", "Lng": "-8.546356" },
    "DadosAtividade": null
  },
  {
    "Nome": "Serv. Ministério Público da Comarca Aveiro - Procuradoria - Juízo Família e Menores - Oliv. Bairro",
    "Tipo": 1,
    "Ordenacao": 3,
    "Morada": "Rua do Foral,  8",
    "CodigoPostal": "3770-852  Oliveira do Bairro",
    "Telefone": "234 118 370",
    "FAX": "234 118 369",
    "Email": "obairro.familia.ministeriopublico@tribunais.org.pt",
    "Posicao": { "Lat": "40.51649893283121", "Lng": "-8.494888544082641" },
    "DadosAtividade": null
  },
  {
    "Nome": "Serv. Ministério Público da Comarca Aveiro - Procuradoria - Juízo Família Menores - S. João Madeira",
    "Tipo": 1,
    "Ordenacao": 3,
    "Morada": "Palácio da Justiça - Rua João de Deus, n.º 160",
    "CodigoPostal": "3701-501  São João da Madeira",
    "Telefone": "256 200 550",
    "FAX": "256 090 198",
    "Email": "sjmadeira.ministeriopublico@tribunais.org.pt",
    "Posicao": { "Lat": "40.897469", "Lng": "-8.490232" },
    "DadosAtividade": null
  },
  {
    "Nome": "Serv. Ministério Público da Comarca Aveiro - Procuradoria - Juízo Família Menores - S. Maria Feira",
    "Tipo": 1,
    "Ordenacao": 3,
    "Morada": "Palácio da Justiça, Rua Dr. Cândido de Pinho, 18-30",
    "CodigoPostal": "4520-211  Santa Maria da Feira",
    "Telefone": "256371811",
    "FAX": "256090138",
    "Email": "feira.ministeriopublico@tribunais.org.pt",
    "Posicao": { "Lat": "40.929075", "Lng": "-8.546356" },
    "DadosAtividade": null
  },
  {
    "Nome": "Serv. Ministério Público da Comarca Aveiro - Procuradoria - Juízo Local Cível  - Oliveira Azeméis",
    "Tipo": 1,
    "Ordenacao": 2,
    "Morada": "Av. António José de Almeida",
    "CodigoPostal": "3720-039  Oliveira de Azeméis",
    "Telefone": "256 600 517",
    "FAX": "256 600 569",
    "Email": "oazemeis.ministeriopublico@tribunais.org.pt",
    "Posicao": { "Lat": "40.839119", "Lng": "-8.47787" },
    "DadosAtividade": null
  },
  {
    "Nome": "Serv. Ministério Público da Comarca Aveiro - Procuradoria - Juízo Local Cível - Águeda",
    "Tipo": 1,
    "Ordenacao": 2,
    "Morada": "R. Fernando Caldeira",
    "CodigoPostal": "3750 - 147 Águeda",
    "Telefone": "234610310",
    "FAX": "234118089",
    "Email": "agueda.ministeriopublico@tribunais.org.pt",
    "Posicao": { "Lat": "40.5737151572528", "Lng": "-8.44582557678223" },
    "DadosAtividade": null
  },
  {
    "Nome": "Serv. Ministério Público da Comarca Aveiro - Procuradoria - Juízo Local Cível - Aveiro",
    "Tipo": 1,
    "Ordenacao": 2,
    "Morada": "Praça Marquês de Pombal",
    "CodigoPostal": "3814-502 Aveiro",
    "Telefone": "234 405 300",
    "FAX": "234 405 399",
    "Email": "aveiro.ministeriopublico@tribunais.org.pt",
    "Posicao": { "Lat": "40.6387361291511", "Lng": "-8.65387111902237" },
    "DadosAtividade": null
  },
  {
    "Nome": "Serv. Ministério Público da Comarca Aveiro - Procuradoria - Juízo Local Cível - Ovar",
    "Tipo": 1,
    "Ordenacao": 2,
    "Morada": "Rua Alexandre Herculano",
    "CodigoPostal": "3880-146 Ovar",
    "Telefone": "256 100 730",
    "FAX": "256 100 758",
    "Email": "ovar.ministeriopublico@tribunais.org.pt",
    "Posicao": { "Lat": "40.8597848889079", "Lng": "-8.62414419651031" },
    "DadosAtividade": null
  },
  {
    "Nome": "Serv. Ministério Público da Comarca Aveiro - Procuradoria - Juízo Local Cível - Santa Maria da Feira",
    "Tipo": 1,
    "Ordenacao": 4,
    "Morada": "Palácio da Justiça, Rua Dr. Cândido de Pinho, 18-30",
    "CodigoPostal": "4520-211  Santa Maria da Feira",
    "Telefone": "256371811",
    "FAX": "256090138",
    "Email": "feira.ministeriopublico@tribunais.org.pt",
    "Posicao": { "Lat": "40.929075", "Lng": "-8.546356" },
    "DadosAtividade": null
  },
  {
    "Nome": "Serv. Ministério Público da Comarca Aveiro - Procuradoria - Juízo Local Criminal - Águeda",
    "Tipo": 1,
    "Ordenacao": 3,
    "Morada": "R. Fernando Caldeira",
    "CodigoPostal": "3750 - 147 Águeda",
    "Telefone": "234610310",
    "FAX": "234118089",
    "Email": "agueda.ministeriopublico@tribunais.org.pt",
    "Posicao": { "Lat": "40.5737151572528", "Lng": "-8.44582557678223" },
    "DadosAtividade": null
  },
  {
    "Nome": "Serv. Ministério Público da Comarca Aveiro - Procuradoria - Juízo Local Criminal - Aveiro",
    "Tipo": 1,
    "Ordenacao": 3,
    "Morada": "Praça Marquês de Pombal",
    "CodigoPostal": "3814-502 Aveiro",
    "Telefone": "234 405 300",
    "FAX": "234 405 399",
    "Email": "aveiro.ministeriopublico@tribunais.org.pt",
    "Posicao": { "Lat": "40.6387361291511", "Lng": "-8.65387111902237" },
    "DadosAtividade": null
  },
  {
    "Nome": "Serv. Ministério Público da Comarca Aveiro - Procuradoria - Juízo Local Criminal - Oliveira Azeméis",
    "Tipo": 1,
    "Ordenacao": 3,
    "Morada": "Av. António José de Almeida",
    "CodigoPostal": "3720-039  Oliveira de Azeméis",
    "Telefone": "256 600 517",
    "FAX": "256 600 569",
    "Email": "oazemeis.ministeriopublico@tribunais.org.pt",
    "Posicao": { "Lat": "40.839119", "Lng": "-8.47787" },
    "DadosAtividade": null
  },
  {
    "Nome": "Serv. Ministério Público da Comarca Aveiro - Procuradoria - Juízo Local Criminal - Santa Maria Feira",
    "Tipo": 1,
    "Ordenacao": 5,
    "Morada": "Palácio da Justiça, Rua Dr. Cândido de Pinho, 18-30",
    "CodigoPostal": "4520-211  Santa Maria da Feira",
    "Telefone": "256371811",
    "FAX": "256090138",
    "Email": "feira.ministeriopublico@tribunais.org.pt",
    "Posicao": { "Lat": "40.929075", "Lng": "-8.546356" },
    "DadosAtividade": null
  },
  {
    "Nome": "Serv. Ministério Público da Comarca Aveiro - Procuradoria - Juízo Trabalho - Oliveira de Azeméis",
    "Tipo": 1,
    "Ordenacao": 4,
    "Morada": "Av. António José de Almeida",
    "CodigoPostal": "3720-039  Oliveira de Azeméis",
    "Telefone": "256 090 210",
    "FAX": "256 600 569",
    "Email": "oazemeis.ministeriopublico@tribunais.org.pt",
    "Posicao": { "Lat": "40.839119", "Lng": "-8.47787" },
    "DadosAtividade": null
  },
  {
    "Nome": "Serv. Ministério Público da Comarca Beja - Procuradoria - J. Local Criminal - Sec Inquéritos - Beja",
    "Tipo": 1,
    "Ordenacao": 1,
    "Morada": "Largo Eng. Duarte Pacheco",
    "CodigoPostal": "7801-960 Beja",
    "Telefone": "284 314 480",
    "FAX": "284 090 148",
    "Email": "beja.ministeriopublico@tribunais.org.pt",
    "Posicao": { "Lat": "38.0138058927903", "Lng": "-7.86091089248657" },
    "DadosAtividade": null
  },
  {
    "Nome": "Serv. Ministério Público da Comarca Beja - Procuradoria - J.Comp.Gen - Ourique - S. Inquéritos",
    "Tipo": 1,
    "Ordenacao": 1,
    "Morada": "Rua da Misericordia",
    "CodigoPostal": "7670-262  Ourique",
    "Telefone": "286 510 000",
    "FAX": "286 090 008",
    "Email": "ourique.ministeriopublico@tribunais.org.pt",
    "Posicao": { "Lat": "37.65137", "Lng": "-8.227159" },
    "DadosAtividade": null
  },
  {
    "Nome": "Serv. Ministério Público da Comarca Beja - Procuradoria - J.Comp.Gen - S. Inquéritos - Odemira",
    "Tipo": 1,
    "Ordenacao": 1,
    "Morada": "Largo Brito Pais",
    "CodigoPostal": "7630-133 Odemira",
    "Telefone": "283 101 530",
    "FAX": "283 101 548",
    "Email": "odemira.ministeriopublico@tribunais.org.pt",
    "Posicao": { "Lat": "37.5987706378764", "Lng": "-8.64359021186829" },
    "DadosAtividade": null
  },
  {
    "Nome": "Serv. Ministério Público da Comarca Beja - Procuradoria - J.Comp.Gen - S.Inquéritos - Cuba",
    "Tipo": 1,
    "Ordenacao": 1,
    "Morada": "Largo Cristovão Colon",
    "CodigoPostal": "7940-171  Cuba",
    "Telefone": "284 090 100",
    "FAX": "284 090 118",
    "Email": "cuba.ministeriopublico@tribunais.org.pt",
    "Posicao": { "Lat": "38.1659847185929", "Lng": "-7.89160072803497" },
    "DadosAtividade": null
  },
  {
    "Nome": "Serv. Ministério Público da Comarca Beja - Procuradoria - J.Comp.Gen - S.Inquéritos - Moura",
    "Tipo": 1,
    "Ordenacao": 1,
    "Morada": "Palácio da Justiça - Largo Santa Clara",
    "CodigoPostal": "7860-204  Moura",
    "Telefone": "285 250 830",
    "FAX": "285 090 008",
    "Email": "moura.ministeriopublico@tribunais.org.pt",
    "Posicao": { "Lat": "38.1393244012511", "Lng": "-7.45031297206879" },
    "DadosAtividade": null
  },
  {
    "Nome": "Serv. Ministério Público da Comarca Beja - Procuradoria - J.Comp.Gen - S.Inquéritos - Serpa",
    "Tipo": 1,
    "Ordenacao": 1,
    "Morada": "Palácio da Justiça - Av. Capitães de Abril",
    "CodigoPostal": "7830-493  Serpa",
    "Telefone": "284 540 080",
    "FAX": "284 540 088",
    "Email": "serpa.ministeriopublico@tribunais.org.pt",
    "Posicao": { "Lat": "37.9385792700741", "Lng": "-7.59854793548584" },
    "DadosAtividade": null
  },
  {
    "Nome": "Serv. Ministério Público da Comarca Beja - Procuradoria - Juízo  Comp. Genérica - Odemira",
    "Tipo": 1,
    "Ordenacao": 2,
    "Morada": "Largo Brito Pais",
    "CodigoPostal": "7630-133 Odemira",
    "Telefone": "283 101 530",
    "FAX": "283 101 548",
    "Email": "odemira.ministeriopublico@tribunais.org.pt",
    "Posicao": { "Lat": "37.5987706378764", "Lng": "-8.64359021186829" },
    "DadosAtividade": null
  },
  {
    "Nome": "Serv. Ministério Público da Comarca Beja - Procuradoria - Juízo  Comp. Genérica - Ourique",
    "Tipo": 1,
    "Ordenacao": 2,
    "Morada": "Rua da Misericordia",
    "CodigoPostal": "7670-262  Ourique",
    "Telefone": "286 510 000",
    "FAX": "286 090 008",
    "Email": "ourique.ministeriopublico@tribunais.org.pt",
    "Posicao": { "Lat": "37.65137", "Lng": "-8.227159" },
    "DadosAtividade": null
  },
  {
    "Nome": "Serv. Ministério Público da Comarca Beja - Procuradoria - Juízo  Comp. Genérica - Serpa",
    "Tipo": 1,
    "Ordenacao": 2,
    "Morada": "Palácio da Justiça - Av. Capitães de Abril",
    "CodigoPostal": "7830-493  Serpa",
    "Telefone": "284 540 080",
    "FAX": "284 540 088",
    "Email": "serpa.ministeriopublico@tribunais.org.pt",
    "Posicao": { "Lat": "37.9385792700741", "Lng": "-7.59854793548584" },
    "DadosAtividade": null
  },
  {
    "Nome": "Serv. Ministério Público da Comarca Beja - Procuradoria - Juízo Central Cível - Beja",
    "Tipo": 1,
    "Ordenacao": 2,
    "Morada": "Largo Eng. Duarte Pacheco",
    "CodigoPostal": "7801-960 Beja",
    "Telefone": "284314480",
    "FAX": "284090148",
    "Email": "beja.ministeriopublico@tribunais.org.pt",
    "Posicao": { "Lat": "38.0138058927903", "Lng": "-7.86091089248657" },
    "DadosAtividade": null
  },
  {
    "Nome": "Serv. Ministério Público da Comarca Beja - Procuradoria - Juízo Comp. Genérica - Cuba",
    "Tipo": 1,
    "Ordenacao": 2,
    "Morada": "Largo Cristovão Colon",
    "CodigoPostal": "7940-171  Cuba",
    "Telefone": "284 090 100",
    "FAX": "284 090 118",
    "Email": "cuba.ministeriopublico@tribunais.org.pt",
    "Posicao": { "Lat": "38.1659847185929", "Lng": "-7.89160072803497" },
    "DadosAtividade": null
  },
  {
    "Nome": "Serv. Ministério Público da Comarca Beja - Procuradoria - Juízo Comp. Genérica - Ferreira Alentejo",
    "Tipo": 1,
    "Ordenacao": 1,
    "Morada": "Palácio da Justiça - Rua Dr. António Matos de Sousa, n.º 17",
    "CodigoPostal": "7900- 909 Ferreira do Alentejo",
    "Telefone": "284 738 030",
    "FAX": "284 738 048",
    "Email": "falentejo.ministeriopublico@tribunais.org.pt",
    "Posicao": { "Lat": "38.055948114447", "Lng": "-8.11450302600861" },
    "DadosAtividade": null
  },
  {
    "Nome": "Serv. Ministério Público da Comarca Beja - Procuradoria - Juízo Comp. Genérica - Moura",
    "Tipo": 1,
    "Ordenacao": 2,
    "Morada": "Palácio da Justiça - Largo Santa Clara",
    "CodigoPostal": "7860-204  Moura",
    "Telefone": "285 250 830",
    "FAX": "285 090 008",
    "Email": "moura.ministeriopublico@tribunais.org.pt",
    "Posicao": { "Lat": "38.1393244012511", "Lng": "-7.45031297206879" },
    "DadosAtividade": null
  },
  {
    "Nome": "Serv. Ministério Público da Comarca Beja - Procuradoria - Juízo de Comp. Genérica - Almodôvar",
    "Tipo": 1,
    "Ordenacao": 1,
    "Morada": "Palácio da Justiça - Rua 1º de Maio, r/c",
    "CodigoPostal": "7700 - 078 Almodovar",
    "Telefone": "286 660 060",
    "FAX": "286 090 028",
    "Email": "almodovar.ministeriopublico@tribunais.org.pt",
    "Posicao": { "Lat": "37.5095471190919", "Lng": "-8.06325674057007" },
    "DadosAtividade": null
  },
  {
    "Nome": "Serv. Ministério Público da Comarca Beja - Procuradoria - Juízo de Família e Menores - Beja",
    "Tipo": 1,
    "Ordenacao": 3,
    "Morada": "Rua Ivo da Silva Góis Figueira",
    "CodigoPostal": "7800 551 Beja",
    "Telefone": "284310980",
    "FAX": "284090148",
    "Email": "beja.familia.ministeriopublico@tribunais.org.pt",
    "Posicao": { "Lat": "38.0138058927903", "Lng": "-7.86091089248657" },
    "DadosAtividade": null
  },
  {
    "Nome": "Serv. Ministério Público da Comarca Beja - Procuradoria - Juízo do Trabalho - Beja",
    "Tipo": 1,
    "Ordenacao": 1,
    "Morada": "Rua Ivo da Silva Góis Figueira",
    "CodigoPostal": "7800 551 Beja",
    "Telefone": "284 310 980",
    "FAX": "284 090 148",
    "Email": "beja.ministeriopublico@tribunais.org.pt",
    "Posicao": { "Lat": "38.0137129114216", "Lng": "-7.85992383956909" },
    "DadosAtividade": null
  },
  {
    "Nome": "Serv. Ministério Público da Comarca Beja-Procuradoria - J.Comp.Gen - S.Inquéritos - Almodôvar",
    "Tipo": 1,
    "Ordenacao": 2,
    "Morada": "Palácio da Justiça - Rua 1º de Maio, r/c",
    "CodigoPostal": "7700 - 078 Almodovar",
    "Telefone": "286 660 060",
    "FAX": "286 090 028",
    "Email": "almodovar.ministeriopublico@tribunais.org.pt",
    "Posicao": { "Lat": "37.5095471190919", "Lng": "-8.06325674057007" },
    "DadosAtividade": null
  },
  {
    "Nome": "Serv. Ministério Público da Comarca Beja-Procuradoria -J.Comp.Gen - S.Inquéritos - Ferreira Alentejo",
    "Tipo": 1,
    "Ordenacao": 2,
    "Morada": "Palácio da Justiça - Rua Dr. António Matos de Sousa, n.º 17",
    "CodigoPostal": "7900- 909 Ferreira do Alentejo",
    "Telefone": "284 738 030",
    "FAX": "284 738 048",
    "Email": "falentejo.ministeriopublico@tribunais.org.pt",
    "Posicao": { "Lat": "38.055948114447", "Lng": "-8.11450302600861" },
    "DadosAtividade": null
  },
  {
    "Nome": "Serv. Ministério Público da Comarca Braga - DIAP  - Amares",
    "Tipo": 1,
    "Ordenacao": 1,
    "Morada": "Palácio da Justiça, Largo do Município",
    "CodigoPostal": "4720-058  Amares",
    "Telefone": "253 909 250",
    "FAX": "253 081 078",
    "Email": "amares.ministeriopublico@tribunais.org.pt",
    "Posicao": { "Lat": "41.630628457105", "Lng": "-8.35645437240601" },
    "DadosAtividade": null
  },
  {
    "Nome": "Serv. Ministério Público da Comarca Braga - DIAP - Barcelos",
    "Tipo": 1,
    "Ordenacao": 1,
    "Morada": "Palácio da Justiça, Praça Dr. Francisco Sá Carneiro",
    "CodigoPostal": "4750 - 297 Barcelos",
    "Telefone": "253 808 330",
    "FAX": "253 081 108",
    "Email": "barcelos.ministeriopublico@tribunais.org.pt",
    "Posicao": { "Lat": "41.5301820992684", "Lng": "-8.61742258071899" },
    "DadosAtividade": null
  },
  {
    "Nome": "Serv. Ministério Público da Comarca Braga - DIAP - Braga",
    "Tipo": 1,
    "Ordenacao": 1,
    "Morada": "Palácio da Justiça, Praça da Justiça",
    "CodigoPostal": "4719-004  Braga",
    "Telefone": "253 081 110",
    "FAX": "253 081 257",
    "Email": "braga.diap@tribunais.org.pt",
    "Posicao": { "Lat": "41.54795", "Lng": "-8.41297" },
    "DadosAtividade": null
  },
  {
    "Nome": "Serv. Ministério Público da Comarca Braga - DIAP - Cabeceiras de Basto",
    "Tipo": 1,
    "Ordenacao": 1,
    "Morada": "Rua 25 de Abril. n.º 25",
    "CodigoPostal": "4860-350  Cabeceiras de Basto",
    "Telefone": "253 669 140",
    "FAX": "253 081 458",
    "Email": "cabbasto.ministeriopublico@tribunais.org.pt",
    "Posicao": { "Lat": "41.5116348", "Lng": "-7.9909625" },
    "DadosAtividade": null
  },
  {
    "Nome": "Serv. Ministério Público da Comarca Braga - DIAP - Celorico de Basto",
    "Tipo": 1,
    "Ordenacao": 1,
    "Morada": "Palácio da Justiça - Av. João Pinto Ribeiro",
    "CodigoPostal": "4890-221  Celorico de Basto",
    "Telefone": "255 320 180",
    "FAX": "255 091 648",
    "Email": "clbasto.ministeriopublico@tribunais.org.pt",
    "Posicao": { "Lat": "41.3868759792756", "Lng": "-8.00050377845764" },
    "DadosAtividade": null
  },
  {
    "Nome": "Serv. Ministério Público da Comarca Braga - DIAP - Esposende",
    "Tipo": 1,
    "Ordenacao": 1,
    "Morada": "Palácio da Justiça - Av. Eng.º Arantes de Oliveira",
    "CodigoPostal": "4740-204  Esposende",
    "Telefone": "253 969 310",
    "FAX": "253 081 428",
    "Email": "esposende.ministeriopublico@tribunais.org.pt",
    "Posicao": { "Lat": "41.5321458145137", "Lng": "-8.78275394439697" },
    "DadosAtividade": null
  },
  {
    "Nome": "Serv. Ministério Público da Comarca Braga - DIAP - Fafe",
    "Tipo": 1,
    "Ordenacao": 1,
    "Morada": "Palácio da Justiça - Praça José Florêncio Soares",
    "CodigoPostal": "4820-148  Fafe",
    "Telefone": "253 700 940",
    "FAX": "253 700 958",
    "Email": "fafe.ministeriopublico@tribunais.org.pt",
    "Posicao": { "Lat": "41.4506847728978", "Lng": "-8.16900551319122" },
    "DadosAtividade": null
  },
  {
    "Nome": "Serv. Ministério Público da Comarca Braga - DIAP - Guimarães",
    "Tipo": 1,
    "Ordenacao": 1,
    "Morada": "Palácio da Justiça, Praça da Mumadona",
    "CodigoPostal": "4810-279-Guimarães",
    "Telefone": "253 423 950",
    "FAX": "253 081 068",
    "Email": "guimaraes.ministeriopublico@tribunais.org.pt",
    "Posicao": { "Lat": "41.4446002590616", "Lng": "-8.2906436920166" },
    "DadosAtividade": null
  },
  {
    "Nome": "Serv. Ministério Público da Comarca Braga - DIAP - Póvoa de Lanhoso",
    "Tipo": 1,
    "Ordenacao": 1,
    "Morada": "Largo Paços do Concelho",
    "CodigoPostal": "4830-519  Póvoa de Lanhoso",
    "Telefone": "253 639 260",
    "FAX": "253 081 378",
    "Email": "planhoso.ministeriopublico@tribunais.org.pt",
    "Posicao": { "Lat": "41.576801221598", "Lng": "-8.27266216278076" },
    "DadosAtividade": null
  },
  {
    "Nome": "Serv. Ministério Público da Comarca Braga - DIAP - Vieira do Minho",
    "Tipo": 1,
    "Ordenacao": 1,
    "Morada": "Praça Guilherme Abreu",
    "CodigoPostal": "4850-527  Vieira do Minho",
    "Telefone": "253 649 290",
    "FAX": "253 081 368",
    "Email": "vminho.ministeriopublico@tribunais.org.pt",
    "Posicao": { "Lat": "41.634337", "Lng": "-8.139433" },
    "DadosAtividade": null
  },
  {
    "Nome": "Serv. Ministério Público da Comarca Braga - DIAP - Vila Verde",
    "Tipo": 1,
    "Ordenacao": 1,
    "Morada": "Palácio da Justiça - Praça da República",
    "CodigoPostal": " 4730-732  Vila Verde",
    "Telefone": "253 081 460",
    "FAX": "253 081 488",
    "Email": "vilaverde.ministeriopublico@tribunais.org.pt",
    "Posicao": { "Lat": "41.649679", "Lng": "-8.436075" },
    "DadosAtividade": null
  },
  {
    "Nome": "Serv. Ministério Público da Comarca Braga - DIAP - VNFamalicão",
    "Tipo": 1,
    "Ordenacao": 1,
    "Morada": "Av. Eng. Pinheiro Braga, 1000/1002",
    "CodigoPostal": "4764-501 Vila Nova de Famalicão",
    "Telefone": "252 089 500",
    "FAX": "252 089 559",
    "Email": "vnfamalicao.ministeriopublico@tribunais.org.pt",
    "Posicao": { "Lat": "41.419246", "Lng": "-8.517111" },
    "DadosAtividade": null
  },
  {
    "Nome": "Serv. Ministério Público da Comarca Braga - Procuradoria - Coordenação - Braga",
    "Tipo": 1,
    "Ordenacao": 1,
    "Morada": "Palácio da Justiça, Praça da Justiça",
    "CodigoPostal": "4719-004  Braga",
    "Telefone": "253081110",
    "FAX": "253081258",
    "Email": "braga.ministeriopublico@tribunais.org.pt",
    "Posicao": { "Lat": "41.54885", "Lng": "-8.41281" },
    "DadosAtividade": null
  },
  {
    "Nome": "Serv. Ministério Público da Comarca Braga - Procuradoria - Juízo Central Cível - Braga",
    "Tipo": 1,
    "Ordenacao": 2,
    "Morada": "Palácio da Justiça, Praça da Justiça",
    "CodigoPostal": "4719-004  Braga",
    "Telefone": "253 081 110",
    "FAX": "253 081 258",
    "Email": "braga.ministeriopublico@tribunais.org.pt",
    "Posicao": { "Lat": "41.54795", "Lng": "-8.41297" },
    "DadosAtividade": null
  },
  {
    "Nome": "Serv. Ministério Público da Comarca Braga - Procuradoria - Juízo Central Criminal - Braga",
    "Tipo": 1,
    "Ordenacao": 3,
    "Morada": "Palácio da Justiça, Praça da Justiça",
    "CodigoPostal": "4719-004  Braga",
    "Telefone": "253 081 110",
    "FAX": "253 081 258",
    "Email": "braga.ministeriopublico@tribunais.org.pt",
    "Posicao": { "Lat": "41.54795", "Lng": "-8.41297" },
    "DadosAtividade": null
  },
  {
    "Nome": "Serv. Ministério Público da Comarca Braga - Procuradoria - Juízo Comp. Genérica  - Amares",
    "Tipo": 1,
    "Ordenacao": 2,
    "Morada": "Palácio da Justiça, Largo do Município",
    "CodigoPostal": "4720-058  Amares",
    "Telefone": "253 909 250",
    "FAX": "253 081 078",
    "Email": "amares.ministeriopublico@tribunais.org.pt",
    "Posicao": { "Lat": "41.630628457105", "Lng": "-8.35645437240601" },
    "DadosAtividade": null
  },
  {
    "Nome": "Serv. Ministério Público da Comarca Braga - Procuradoria - Juízo Comp.Genérica - Cabeceiras de Basto",
    "Tipo": 1,
    "Ordenacao": 2,
    "Morada": "Rua 25 de Abril. n.º 25",
    "CodigoPostal": "4860-350  Cabeceiras de Basto",
    "Telefone": "253 669 140",
    "FAX": "253 081 458",
    "Email": "cabbasto.ministeriopublico@tribunais.org.pt",
    "Posicao": { "Lat": "41.5116348", "Lng": "-7.9909625" },
    "DadosAtividade": null
  },
  {
    "Nome": "Serv. Ministério Público da Comarca Braga - Procuradoria - Juízo Comp.Genérica - Celorico de Basto",
    "Tipo": 1,
    "Ordenacao": 2,
    "Morada": "Palácio da Justiça - Av. João Pinto Ribeiro",
    "CodigoPostal": "4890-221  Celorico de Basto",
    "Telefone": "255 320 180",
    "FAX": "255 091 648",
    "Email": "clbasto.ministeriopublico@tribunais.org.pt",
    "Posicao": { "Lat": "41.3868759792756", "Lng": "-8.00050377845764" },
    "DadosAtividade": null
  },
  {
    "Nome": "Serv. Ministério Público da Comarca Braga - Procuradoria - Juízo Comp.Genérica - Esposende",
    "Tipo": 1,
    "Ordenacao": 2,
    "Morada": "Palácio da Justiça - Av. Eng.º Arantes de Oliveira",
    "CodigoPostal": "4740-204  Esposende",
    "Telefone": "253 969 310",
    "FAX": "253 081 428",
    "Email": "esposende.ministeriopublico@tribunais.org.pt",
    "Posicao": { "Lat": "41.5321458145137", "Lng": "-8.78275394439697" },
    "DadosAtividade": null
  },
  {
    "Nome": "Serv. Ministério Público da Comarca Braga - Procuradoria - Juízo Comp.Genérica - Póvoa de Lanhoso",
    "Tipo": 1,
    "Ordenacao": 2,
    "Morada": "Largo Paços do Concelho",
    "CodigoPostal": "4830-519  Póvoa de Lanhoso",
    "Telefone": "253 639 260",
    "FAX": "253 081 378",
    "Email": "planhoso.ministeriopublico@tribunais.org.pt",
    "Posicao": { "Lat": "41.576801221598", "Lng": "-8.27266216278076" },
    "DadosAtividade": null
  },
  {
    "Nome": "Serv. Ministério Público da Comarca Braga - Procuradoria - Juízo Comp.Genérica - Vieira do Minho",
    "Tipo": 1,
    "Ordenacao": 2,
    "Morada": "Praça Guilherme Abreu",
    "CodigoPostal": "4850-527  Vieira do Minho",
    "Telefone": "253 649 290",
    "FAX": "253 081 368",
    "Email": "vminho.ministeriopublico@tribunais.org.pt",
    "Posicao": { "Lat": "41.634337", "Lng": "-8.139433" },
    "DadosAtividade": null
  },
  {
    "Nome": "Serv. Ministério Público da Comarca Braga - Procuradoria - Juízo de Família e Menores - Barcelos",
    "Tipo": 1,
    "Ordenacao": 2,
    "Morada": "Palácio da Justiça, Praça Dr. Francisco Sá Carneiro",
    "CodigoPostal": "4750 - 297 Barcelos",
    "Telefone": "253 808 330",
    "FAX": "253 081 108",
    "Email": "barcelos.ministeriopublico@tribunais.org.pt",
    "Posicao": { "Lat": "41.5301820992684", "Lng": "-8.61742258071899" },
    "DadosAtividade": null
  },
  {
    "Nome": "Serv. Ministério Público da Comarca Braga - Procuradoria - Juízo de Família e Menores - Braga",
    "Tipo": 1,
    "Ordenacao": 1,
    "Morada": "Avenida da Liberdade, nº 459, 2º andar",
    "CodigoPostal": "4711-910 Braga",
    "Telefone": "253 081 380",
    "FAX": "253 081 258",
    "Email": "braga.familia.ministeriopublico@tribunais.org.pt",
    "Posicao": { "Lat": "41.55245", "Lng": "-8.42551" },
    "DadosAtividade": null
  },
  {
    "Nome": "Serv. Ministério Público da Comarca Braga - Procuradoria - Juízo de Família e Menores - Fafe",
    "Tipo": 1,
    "Ordenacao": 2,
    "Morada": "Palácio da Justiça – Praça José Florêncio Soares",
    "CodigoPostal": "4820 – 148 Fafe",
    "Telefone": "253700940",
    "FAX": "253700958",
    "Email": "fafe.ministeriopublico@tribunais.org.pt",
    "Posicao": { "Lat": "41.4506847728978", "Lng": "-8.16900551319122" },
    "DadosAtividade": null
  },
  {
    "Nome": "Serv. Ministério Público da Comarca Braga - Procuradoria - Juízo de Família e Menores - Guimarães",
    "Tipo": 1,
    "Ordenacao": 1,
    "Morada": "Rua dos Cutileiros-Creixomil",
    "CodigoPostal": "4835-044 Guimarães",
    "Telefone": "253 439 530",
    "FAX": "253 081 068",
    "Email": "guimaraes.familia.ministeriopublico@tribunais.org.pt",
    "Posicao": { "Lat": "41.4374502664585", "Lng": "-8.31577062606812" },
    "DadosAtividade": null
  },
  {
    "Nome": "Serv. Ministério Público da Comarca Braga - Procuradoria - Juízo de Família e Menores - VNFamalicão",
    "Tipo": 1,
    "Ordenacao": 2,
    "Morada": "Av. Eng. Pinheiro Braga, 1000/1002",
    "CodigoPostal": "4764-501 Vila Nova de Famalicão",
    "Telefone": "252 089 500",
    "FAX": "252 089 559",
    "Email": "vnfamalicao.familia.ministeriopublico@tribunais.org.pt",
    "Posicao": { "Lat": "41.419246", "Lng": "-8.517111" },
    "DadosAtividade": null
  },
  {
    "Nome": "Serv. Ministério Público da Comarca Braga - Procuradoria - Juízo do Trabalho - Barcelos",
    "Tipo": 1,
    "Ordenacao": 1,
    "Morada": "Palácio da Justiça, Praça Dr. Francisco Sá Carneiro",
    "CodigoPostal": "4750 - 297 Barcelos",
    "Telefone": "253 808 330",
    "FAX": "253 081 108",
    "Email": "barcelos.ministeriopublico@tribunais.org.pt",
    "Posicao": { "Lat": "41.53566", "Lng": "-8.61206" },
    "DadosAtividade": null
  },
  {
    "Nome": "Serv. Ministério Público da Comarca Braga - Procuradoria - Juízo do Trabalho - Braga",
    "Tipo": 1,
    "Ordenacao": 1,
    "Morada": "Rua D. Gonçalo Pereira",
    "CodigoPostal": "4700-032 Braga",
    "Telefone": "253 081 280",
    "FAX": "253 081 258",
    "Email": "braga.trabalho.ministeriopublico@tribunais.org.pt",
    "Posicao": { "Lat": "41.5493990474279", "Lng": "-8.42715740203857" },
    "DadosAtividade": null
  },
  {
    "Nome": "Serv. Ministério Público da Comarca Braga - Procuradoria - Juízo do Trabalho - Guimarães",
    "Tipo": 1,
    "Ordenacao": 1,
    "Morada": "Rua D. João I",
    "CodigoPostal": "4814-504 Guimarães",
    "Telefone": "253 424 290",
    "FAX": "253 081 068",
    "Email": "guimaraes.trabalho.ministeriopublico@tribunais.org.pt",
    "Posicao": { "Lat": "41.4421875262249", "Lng": "-8.29659819602966" },
    "DadosAtividade": null
  },
  {
    "Nome": "Serv. Ministério Público da Comarca Braga - Procuradoria - Juízo do Trabalho - VNFamalicão",
    "Tipo": 1,
    "Ordenacao": 3,
    "Morada": "Av. Eng. Pinheiro Braga, 1000/1002",
    "CodigoPostal": "4764-501 Vila Nova de Famalicão",
    "Telefone": "252 089 500",
    "FAX": "252 089 559",
    "Email": "vnfamalicao.trabalho.ministeriopublico@tribunais.org.pt",
    "Posicao": { "Lat": "41.419246", "Lng": "-8.517111" },
    "DadosAtividade": null
  },
  {
    "Nome": "Serv. Ministério Público da Comarca Braga - Procuradoria - Juízo Local Cível - Guimarães",
    "Tipo": 1,
    "Ordenacao": 2,
    "Morada": "Palácio da Justiça, Praça da Mumadona",
    "CodigoPostal": "4810-279-Guimarães",
    "Telefone": "253 423 950",
    "FAX": "253 081 068",
    "Email": "guimaraes.ministeriopublico@tribunais.org.pt",
    "Posicao": { "Lat": "41.4446002590616", "Lng": "-8.2906436920166" },
    "DadosAtividade": null
  },
  {
    "Nome": "Serv. Ministério Público da Comarca Braga - Procuradoria - Juízo Local Cível - VNFamalicão",
    "Tipo": 1,
    "Ordenacao": 4,
    "Morada": "Av. Eng. Pinheiro Braga, 1000/1002",
    "CodigoPostal": "4764-501 Vila Nova de Famalicão",
    "Telefone": "252 089 500",
    "FAX": "252 089 559",
    "Email": "vnfamalicao.ministeriopublico@tribunais.org.pt",
    "Posicao": { "Lat": "41.419246", "Lng": "-8.517111" },
    "DadosAtividade": null
  },
  {
    "Nome": "Serv. Ministério Público da Comarca Braga - Procuradoria - Juízo Local Criminal - Guimarães",
    "Tipo": 1,
    "Ordenacao": 3,
    "Morada": "Palácio da Justiça, Praça da Mumadona",
    "CodigoPostal": "4810-279-Guimarães",
    "Telefone": "253 423 950",
    "FAX": "253 081 068",
    "Email": "guimaraes.ministeriopublico@tribunais.org.pt",
    "Posicao": { "Lat": "41.4446002590616", "Lng": "-8.2906436920166" },
    "DadosAtividade": null
  },
  {
    "Nome": "Serv. Ministério Público da Comarca Braga - Procuradoria - Juízo Local Criminal - VNFamalicão",
    "Tipo": 1,
    "Ordenacao": 5,
    "Morada": "Av. Eng. Pinheiro Braga, 1000/1002",
    "CodigoPostal": "4764-501 Vila Nova de Famalicão",
    "Telefone": "252 089 500",
    "FAX": "252 089 559",
    "Email": "vnfamalicao.ministeriopublico@tribunais.org.pt",
    "Posicao": { "Lat": "41.419246", "Lng": "-8.517111" },
    "DadosAtividade": null
  },
  {
    "Nome": "Serv. Ministério Público da Comarca Bragança - Procuradoria - Juízo Comp. Genérica - Mogadouro",
    "Tipo": 1,
    "Ordenacao": 1,
    "Morada": "Palácio da Justiça - Largo Duarte Pacheco",
    "CodigoPostal": "5200-212  Mogadouro",
    "Telefone": "279 101 530",
    "FAX": "279 101 538",
    "Email": "mogadouro.ministeriopublico@tribunais.org.pt",
    "Posicao": { "Lat": "41.3415208758767", "Lng": "-6.71412706375122" },
    "DadosAtividade": null
  },
  {
    "Nome": "Serv. Ministério Público da Comarca Bragança - Procuradoria - Juízo Comp. Genérica - Torre Moncorvo",
    "Tipo": 1,
    "Ordenacao": 1,
    "Morada": "Praça Francisco Meireles",
    "CodigoPostal": "5160-245  Torre de Moncorvo",
    "Telefone": "279 200 270",
    "FAX": "279 090 028",
    "Email": "tmoncorvo.ministeriopublico@tribunais.org.pt",
    "Posicao": { "Lat": "41.1746727932713", "Lng": "-7.05240726470947" },
    "DadosAtividade": null
  },
  {
    "Nome": "Serv. Ministério Público da Comarca Bragança - Procuradoria - Juízo Comp. Genérica - Vila Flor",
    "Tipo": 1,
    "Ordenacao": 1,
    "Morada": "Av. Marechal Carmona",
    "CodigoPostal": "5360-303  Vila Flor",
    "Telefone": "278 510 010",
    "FAX": "278 510 018",
    "Email": "vilaflor.ministeriopublico@tribunais.org.pt",
    "Posicao": { "Lat": "41.3089703186357", "Lng": "-7.15376257896423" },
    "DadosAtividade": null
  },
  {
    "Nome": "Serv. Ministério Público da Comarca Bragança - Procuradoria - Juízo Comp. Genérica- Mirandela",
    "Tipo": 1,
    "Ordenacao": 1,
    "Morada": "Palácio da Justiça - Rua dos Távoras",
    "CodigoPostal": "5370-422  Mirandela",
    "Telefone": "278 201 050",
    "FAX": "278 201 059",
    "Email": "mirandela.ministeriopublico@tribunais.org.pt",
    "Posicao": { "Lat": "41.4854663581545", "Lng": "-7.18120694160461" },
    "DadosAtividade": null
  },
  {
    "Nome": "Serv. Ministério Público da Comarca Bragança - Procuradoria - Juízo Comp.Genérica - Miranda do Douro",
    "Tipo": 1,
    "Ordenacao": 1,
    "Morada": "Palácio da Justiça, Rua do Paço",
    "CodigoPostal": "5210-211 Miranda do Douro",
    "Telefone": "273090130",
    "FAX": "273090149",
    "Email": "mdouro.ministeriopublico@tribunais.org.pt",
    "Posicao": { "Lat": "41.4928280390889", "Lng": "-6.27412676811218" },
    "DadosAtividade": null
  },
  {
    "Nome": "Serv. Ministério Público da Comarca Bragança - Procuradoria - Juízo Comp.Genérica-Macedo Cavaleiros",
    "Tipo": 1,
    "Ordenacao": 1,
    "Morada": "Rua Alexandre Herculano",
    "CodigoPostal": "5340-228 Macedo de Cavaleiros",
    "Telefone": "278 420 100",
    "FAX": "278 090 018",
    "Email": "macedocav.ministeriopublico@tribunais.org.pt",
    "Posicao": { "Lat": "41.5401044752583", "Lng": "-6.96417331695557" },
    "DadosAtividade": null
  },
  {
    "Nome": "Serv. Ministério Público da Comarca Bragança - Procuradoria - Juízo do Trabalho - Bragança",
    "Tipo": 1,
    "Ordenacao": 1,
    "Morada": "Praça Prof. Cavaleiro de Ferreira",
    "CodigoPostal": "5300-108 Bragança",
    "Telefone": "273 302 350",
    "FAX": "273 310 002 ",
    "Email": "braganca.trabalho.ministeriopublico@tribunais.org.pt",
    "Posicao": { "Lat": "41.8067412833208", "Lng": "-6.75902724266052" },
    "DadosAtividade": null
  },
  {
    "Nome": "Serv. Ministério Público da Comarca Bragança - Procuradoria-J. Local Criminal-S.Inquéritos-Bragança",
    "Tipo": 1,
    "Ordenacao": 2,
    "Morada": "Palácio da Justiça - Praça Prof. Cavaleiro de Ferreira",
    "CodigoPostal": "5301-860  Bragança",
    "Telefone": "273 310 000",
    "FAX": "273 310 002 ",
    "Email": "braganca.ministeriopublico@tribunais.org.pt",
    "Posicao": { "Lat": "41.8067412833208", "Lng": "-6.75902724266052" },
    "DadosAtividade": null
  },
  {
    "Nome": "Serv. Ministério Público da Comarca C. Branco - Procuradoria - Juízo Comp.Genérica - Idanha-a-Nova",
    "Tipo": 1,
    "Ordenacao": 1,
    "Morada": "Praça do Município",
    "CodigoPostal": "6060-163  Idanha-a-Nova",
    "Telefone": "277 200 530",
    "FAX": "277 090 028",
    "Email": "inova.ministeriopublico@tribunais.org.pt",
    "Posicao": { "Lat": "39.92431756813198", "Lng": "-7.242801189422607" },
    "DadosAtividade": null
  },
  {
    "Nome": "Serv. Ministério Público da Comarca C. Branco - Procuradoria-J.Local Criminal-S.Inquéritos-Covilhã",
    "Tipo": 1,
    "Ordenacao": 1,
    "Morada": "Palácio da Justiça, R. Conde da Ericeira",
    "CodigoPostal": "6201-002 Covilhã",
    "Telefone": "275 310 330",
    "FAX": "275 091 428",
    "Email": "covilha.ministeriopublico@tribunais.org.pt",
    "Posicao": { "Lat": "40.275351273022935", "Lng": "-7.499594063720679" },
    "DadosAtividade": null
  },
  {
    "Nome": "Serv. Ministério Público da Comarca C.Branco - Procuradoria - Juízo Local - S. Inquéritos - Fundão",
    "Tipo": 1,
    "Ordenacao": 1,
    "Morada": "Palácio da Justiça -Rua Dr. Alfredo Mendes Gil",
    "CodigoPostal": "6230-287  Fundão",
    "Telefone": "275 750 260",
    "FAX": "275 750 268",
    "Email": "fundao.ministeriopublico@tribunais.org.pt",
    "Posicao": { "Lat": "40.139072462824714", "Lng": "-7.5040483474731445" },
    "DadosAtividade": null
  },
  {
    "Nome": "Serv. Ministério Público da Comarca C.Branco - Procuradoria-J.Local Criminal- S.Inquéritos-C.Branco",
    "Tipo": 1,
    "Ordenacao": 1,
    "Morada": "Palácio da Justiça, Alameda da Liberdade",
    "CodigoPostal": "6000-074 Castelo Branco",
    "Telefone": "272 340 570",
    "FAX": "272 091 518",
    "Email": "cbranco.ministeriopublico@tribunais.org.pt",
    "Posicao": { "Lat": "39.824031", "Lng": "-7.490678" },
    "DadosAtividade": null
  },
  {
    "Nome": "Serv. Ministério Público da Comarca C.Branco - Procuradoria-J.Local Criminal- S.Inquéritos-C.Branco",
    "Tipo": 1,
    "Ordenacao": 2,
    "Morada": "Palácio da Justiça, Alameda da Liberdade",
    "CodigoPostal": "6000-074 Castelo Branco",
    "Telefone": "272 340 570",
    "FAX": "272 091 518",
    "Email": "cbranco.ministeriopublico@tribunais.org.pt",
    "Posicao": { "Lat": "39.824031", "Lng": "-7.490678" },
    "DadosAtividade": null
  },
  {
    "Nome": "Serv. Ministério Público da Comarca Castelo Branco - Procuradoria - Juízo Central Cível - C.Branco",
    "Tipo": 1,
    "Ordenacao": 3,
    "Morada": "Palácio da Justiça, Alameda da Liberdade",
    "CodigoPostal": "6000-074 Castelo Branco",
    "Telefone": "272 340 570",
    "FAX": "272 091 518",
    "Email": "cbranco.ministeriopublico@tribunais.org.pt",
    "Posicao": { "Lat": "39.824031", "Lng": "-7.490678" },
    "DadosAtividade": null
  },
  {
    "Nome": "Serv. Ministério Público da Comarca Castelo Branco - Procuradoria - Juízo Comp.Genérica - Oleiros",
    "Tipo": 1,
    "Ordenacao": 1,
    "Morada": "Largo do Município",
    "CodigoPostal": "6160-409  Oleiros",
    "Telefone": "272 091 500",
    "FAX": "272 091 508",
    "Email": "oleiros.ministeriopublico@tribunais.org.pt",
    "Posicao": { "Lat": "39.9190247877812", "Lng": "-7.91396498680115" },
    "DadosAtividade": null
  },
  {
    "Nome": "Serv. Ministério Público da Comarca Castelo Branco - Procuradoria - Juízo Comp.Genérica - Sertã",
    "Tipo": 1,
    "Ordenacao": 1,
    "Morada": "Palácio da Justiça - Alameda da Carvalha",
    "CodigoPostal": "6100-730  Sertã",
    "Telefone": "274 600 740",
    "FAX": "274 090 018",
    "Email": "serta.ministeriopublico@tribunais.org.pt",
    "Posicao": { "Lat": "39.8013725445049", "Lng": "-8.099085688591" },
    "DadosAtividade": null
  },
  {
    "Nome": "Serv. Ministério Público da Comarca Castelo Branco - Procuradoria - Juízo de Fam Menores - C.Branco ",
    "Tipo": 1,
    "Ordenacao": 4,
    "Morada": "Palácio da Justiça, Alameda da Liberdade",
    "CodigoPostal": "6000-074 Castelo Branco",
    "Telefone": "272 340 570",
    "FAX": "272 091 518",
    "Email": "cbranco.ministeriopublico@tribunais.org.pt",
    "Posicao": { "Lat": "39.824031", "Lng": "-7.490678" },
    "DadosAtividade": null
  },
  {
    "Nome": "Serv. Ministério Público da Comarca Castelo Branco - Procuradoria - Juízo do Trabalho - Covilhã",
    "Tipo": 1,
    "Ordenacao": 1,
    "Morada": "Palácio da Justiça, R. Conde da Ericeira",
    "CodigoPostal": "6201-002 Covilhã",
    "Telefone": "275 310 330",
    "FAX": "275 091 428",
    "Email": "covilha.ministeriopublico@tribunais.org.pt",
    "Posicao": { "Lat": "40.275351", "Lng": "-7.499594" },
    "DadosAtividade": null
  },
  {
    "Nome": "Serv. Ministério Público da Comarca Castelo Branco - Procuradoria - Juízo Fam Menores - Covilhã",
    "Tipo": 1,
    "Ordenacao": 2,
    "Morada": "Palácio da Justiça, R. Conde da Ericeira",
    "CodigoPostal": "6201-002 Covilhã",
    "Telefone": "275 310 330",
    "FAX": "275 091 428",
    "Email": "covilha.ministeriopublico@tribunais.org.pt",
    "Posicao": { "Lat": "40.275351273022935", "Lng": "-7.499594063720679" },
    "DadosAtividade": null
  },
  {
    "Nome": "Serv. Ministério Público da Comarca Castelo Branco - Procuradoria - Juízo Trabalho - C.Branco",
    "Tipo": 1,
    "Ordenacao": 5,
    "Morada": "Rua da Bela Vista",
    "CodigoPostal": "6000-458 Castelo Branco",
    "Telefone": " 272 091 530",
    "FAX": "272 091 518",
    "Email": "cbranco.ministeriopublico@tribunais.org.pt",
    "Posicao": { "Lat": "39.824031", "Lng": "-7.490678" },
    "DadosAtividade": null
  },
  {
    "Nome": "Serv. Ministério Público da Comarca Coimbra - DIAP - Cantanhede",
    "Tipo": 1,
    "Ordenacao": 1,
    "Morada": "Palácio da Justiça - Rua dos Bombeiros Voluntários",
    "CodigoPostal": "3060-163  Cantanhede",
    "Telefone": "231 093 500",
    "FAX": "231 093 528",
    "Email": "cantanhede.ministeriopublico@tribunais.org.pt",
    "Posicao": { "Lat": "40.3467240128204", "Lng": "-8.58960270881653" },
    "DadosAtividade": null
  },
  {
    "Nome": "Serv. Ministério Público da Comarca Coimbra - DIAP - Coimbra",
    "Tipo": 1,
    "Ordenacao": 1,
    "Morada": "Rua da Sofia, 175-2º",
    "CodigoPostal": "3000-391 Coimbra",
    "Telefone": "239 852 260",
    "FAX": "239 096 559",
    "Email": "coimbra.diap@tribunais.org.pt",
    "Posicao": { "Lat": "40.2136836059812", "Lng": "-8.43145966529846" },
    "DadosAtividade": null
  },
  {
    "Nome": "Serv. Ministério Público da Comarca Coimbra - DIAP - Figueira da Foz",
    "Tipo": 1,
    "Ordenacao": 1,
    "Morada": "Palácio da Justiça, Passeio Infante D. Henrique",
    "CodigoPostal": "3080-154 Figueira da Foz ",
    "Telefone": "233 401 740",
    "FAX": "233 093 528",
    "Email": "figfoz.ministeriopublico@tribunais.org.pt",
    "Posicao": { "Lat": "40.1498080347883", "Lng": "-8.86072039604187" },
    "DadosAtividade": null
  },
  {
    "Nome": "Serv. Ministério Público da Comarca Coimbra - Procuradoria - J. Comp. Genérica - Oliveira Hospital",
    "Tipo": 1,
    "Ordenacao": 1,
    "Morada": "Palácio da Justiça - Largo Conselheiro Cabral Metelo",
    "CodigoPostal": "3400-062  Oliveira do Hospital",
    "Telefone": "238 605 230",
    "FAX": "238 605 238",
    "Email": "ohospital.ministeriopublico@tribunais.org.pt",
    "Posicao": { "Lat": "40.3589800449657", "Lng": "-7.86247730255127" },
    "DadosAtividade": null
  },
  {
    "Nome": "Serv. Ministério Público da Comarca Coimbra - Procuradoria - J. Local Cível/Criminal - Figueira Foz",
    "Tipo": 1,
    "Ordenacao": 2,
    "Morada": "Palácio da Justiça, Passeio Infante D. Henrique",
    "CodigoPostal": "3080-154 Figueira da Foz ",
    "Telefone": "233 401 740",
    "FAX": "233 093 528",
    "Email": "figfoz.ministeriopublico@tribunais.org.pt",
    "Posicao": { "Lat": "40.1498080347883", "Lng": "-8.86072039604187" },
    "DadosAtividade": null
  },
  {
    "Nome": "Serv. Ministério Público da Comarca Coimbra - Procuradoria - Juízo Comp. Genérica - Arganil",
    "Tipo": 1,
    "Ordenacao": 1,
    "Morada": "Palácio da Justiça - Av. José Augusto Carvalho",
    "CodigoPostal": "3300-014  Arganil",
    "Telefone": "235 200 540",
    "FAX": "235 093 548",
    "Email": "arganil.ministeriopublico@tribunais.org.pt",
    "Posicao": { "Lat": "40.217202", "Lng": "-8.055031" },
    "DadosAtividade": null
  },
  {
    "Nome": "Serv. Ministério Público da Comarca Coimbra - Procuradoria - Juízo Comp. Genérica - Condeixa-a-Nova",
    "Tipo": 1,
    "Ordenacao": 1,
    "Morada": "Palácio da Justiça - Praça do Município",
    "CodigoPostal": "3150-140  Condeixa-a-Nova",
    "Telefone": "239 949 240",
    "FAX": "239 096 698",
    "Email": "condnova.ministeriopublico@tribunais.org.pt",
    "Posicao": { "Lat": "40.1125059092451", "Lng": "-8.49793821573257" },
    "DadosAtividade": null
  },
  {
    "Nome": "Serv. Ministério Público da Comarca Coimbra - Procuradoria - Juízo Comp. Genérica - Lousã",
    "Tipo": 1,
    "Ordenacao": 1,
    "Morada": "Palácio da Justiça - Av. de São Silvestre",
    "CodigoPostal": "3200-203  Lousã",
    "Telefone": "239 990 310",
    "FAX": "239 990 328",
    "Email": "lousa.ministeriopublico@tribunais.org.pt",
    "Posicao": { "Lat": "40.1122909323629", "Lng": "-8.24416637420654" },
    "DadosAtividade": null
  },
  {
    "Nome": "Serv. Ministério Público da Comarca Coimbra - Procuradoria - Juízo Comp. Genérica - Montemor-o-Velho",
    "Tipo": 1,
    "Ordenacao": 1,
    "Morada": "Palácio da Justiça - Largo dos Anjos",
    "CodigoPostal": "3140-273  Montemor-o-Velho",
    "Telefone": "239 687 510",
    "FAX": "239 096 668",
    "Email": "montvelho.ministeriopublico@tribunais.org.pt",
    "Posicao": { "Lat": "40.1774551847444", "Lng": "-8.68100166320801" },
    "DadosAtividade": null
  },
  {
    "Nome": "Serv. Ministério Público da Comarca Coimbra - Procuradoria - Juízo Comp. Genérica - Penacova",
    "Tipo": 1,
    "Ordenacao": 1,
    "Morada": "Rua de S. João",
    "CodigoPostal": "3360-340  Penacova",
    "Telefone": "239 096 500",
    "FAX": "239 096 518",
    "Email": "penacova.ministeriopublico@tribunais.org.pt",
    "Posicao": { "Lat": "40.270901", "Lng": "-8.282749" },
    "DadosAtividade": null
  },
  {
    "Nome": "Serv. Ministério Público da Comarca Coimbra - Procuradoria - Juízo Comp. Genérica - Soure",
    "Tipo": 1,
    "Ordenacao": 1,
    "Morada": "Palácio da Justiça - Rua São João de Deus",
    "CodigoPostal": "3130-250  Soure",
    "Telefone": "239 852 950",
    "FAX": "239 096 659",
    "Email": "soure.ministeriopublico@tribunais.org.pt",
    "Posicao": { "Lat": "40.0595239566241", "Lng": "-8.62404227256775" },
    "DadosAtividade": null
  },
  {
    "Nome": "Serv. Ministério Público da Comarca Coimbra - Procuradoria - Juízo Comp. Genérica - Tábua",
    "Tipo": 1,
    "Ordenacao": 1,
    "Morada": "Praça Prof. Dr. António Castanheira Neves",
    "CodigoPostal": "3420-307  Tábua ",
    "Telefone": "235 093 500",
    "FAX": "235 093 518",
    "Email": "tabua.ministeriopublico@tribunais.org.pt",
    "Posicao": { "Lat": "40.3616181935651", "Lng": "-8.0305552482605" },
    "DadosAtividade": null
  },
  {
    "Nome": "Serv. Ministério Público da Comarca Coimbra - Procuradoria - Juízo de Família e Menores - Coimbra",
    "Tipo": 1,
    "Ordenacao": 1,
    "Morada": "Av. Fernão de Magalhães, 519 -2º",
    "CodigoPostal": "3004-508 Coimbra",
    "Telefone": "239 853 870",
    "FAX": "239 096 579",
    "Email": "coimbra.ministeriopublico@tribunais.org.pt",
    "Posicao": { "Lat": "40.2150002066333", "Lng": "-8.43564391136169" },
    "DadosAtividade": null
  },
  {
    "Nome": "Serv. Ministério Público da Comarca Coimbra - Procuradoria - Juízo do Trabalho - Coimbra",
    "Tipo": 1,
    "Ordenacao": 1,
    "Morada": "Rua Augusta, 37 -  Celas",
    "CodigoPostal": "3004-505 Coimbra",
    "Telefone": "239 487 430",
    "FAX": "239 096 579",
    "Email": "coimbra.ministeriopublico@tribunais.org.pt",
    "Posicao": { "Lat": "40.2133435962395", "Lng": "-8.41401994228363" },
    "DadosAtividade": null
  },
  {
    "Nome": "Serv. Ministério Público da Comarca Coimbra - Procuradoria - Juízo do Trabalho - Figueira da Foz",
    "Tipo": 1,
    "Ordenacao": 1,
    "Morada": " R. do Estendal",
    "CodigoPostal": "3081-903 Figueira da Foz",
    "Telefone": "233 401 630",
    "FAX": "233 093 528",
    "Email": "figfoz.ministeriopublico@tribunais.org.pt",
    "Posicao": { "Lat": "40.1496071172029", "Lng": "-8.8604199886322" },
    "DadosAtividade": null
  },
  {
    "Nome": "Serv. Ministério Público da Comarca Coimbra - Procuradoria - Juízo Fam Menores - Figueira da Foz",
    "Tipo": 1,
    "Ordenacao": 3,
    "Morada": "Palácio da Justiça, Passeio Infante D. Henrique",
    "CodigoPostal": "3080-154 Figueira da Foz ",
    "Telefone": "233 401 740",
    "FAX": "233 093 528",
    "Email": "figfoz.ministeriopublico@tribunais.org.pt",
    "Posicao": { "Lat": "40.1498080347883", "Lng": "-8.86072039604187" },
    "DadosAtividade": null
  },
  {
    "Nome": "Serv. Ministério Público da Comarca Coimbra - Procuradoria - Juízo Local Cível - Coimbra",
    "Tipo": 1,
    "Ordenacao": 1,
    "Morada": "Rua João de Ruão, 12 Edificio Arnado",
    "CodigoPostal": "3000-229 Coimbra",
    "Telefone": "239 854 970",
    "FAX": "239 096 579",
    "Email": "coimbra.ministeriopublico@tribunais.org.pt",
    "Posicao": { "Lat": "40.213099033821", "Lng": "-8.4311431646347" },
    "DadosAtividade": null
  },
  {
    "Nome": "Serv. Ministério Público da Comarca Coimbra - Procuradoria - Juízo Local Criminal - Coimbra",
    "Tipo": 1,
    "Ordenacao": 2,
    "Morada": "Rua João de Ruão, Edifício da Sofia",
    "CodigoPostal": "3000-229 Coimbra",
    "Telefone": "239 854 970",
    "FAX": "239 096 579",
    "Email": "coimbra.ministeriopublico@tribunais.org.pt",
    "Posicao": { "Lat": "40.213099033821", "Lng": "-8.4311431646347" },
    "DadosAtividade": null
  },
  {
    "Nome": "Serv. Ministério Público da Comarca Évora - DIAP - Estremoz",
    "Tipo": 1,
    "Ordenacao": 1,
    "Morada": "Palácio da Justiça, Praça Luís de Camões",
    "CodigoPostal": "7100-512  Estremoz",
    "Telefone": "268 339 740",
    "FAX": "268 091 018",
    "Email": "estremoz.ministeriopublico@tribunais.org.pt",
    "Posicao": { "Lat": "38.8420725283296", "Lng": "-7.58781373500824" },
    "DadosAtividade": null
  },
  {
    "Nome": "Serv. Ministério Público da Comarca Évora - DIAP - Évora",
    "Tipo": 1,
    "Ordenacao": 1,
    "Morada": "Av. D. Manuel Trindade Salgueiro, 16",
    "CodigoPostal": "7005-869 Évora",
    "Telefone": "266 760 060",
    "FAX": "266 090 108 / 266 760 069",
    "Email": "evora.diap@tribunais.org.pt",
    "Posicao": { "Lat": "38.575471", "Lng": "-7.905689" },
    "DadosAtividade": null
  },
  {
    "Nome": "Serv. Ministério Público da Comarca Évora - DIAP - Montemor-o-Novo",
    "Tipo": 1,
    "Ordenacao": 1,
    "Morada": "Palácio da Justiça - Av. Gago Coutinho",
    "CodigoPostal": "7050-101  Montemor-o-Novo",
    "Telefone": "266 898 360",
    "FAX": "266 898 388",
    "Email": "montnovo.ministeriopublico@tribunais.org.pt",
    "Posicao": { "Lat": "38.6488187077579", "Lng": "-8.21361064910889" },
    "DadosAtividade": null
  },
  {
    "Nome": "Serv. Ministério Público da Comarca Évora - DIAP - Redondo",
    "Tipo": 1,
    "Ordenacao": 1,
    "Morada": "Palácio da Justiça - Praça da República",
    "CodigoPostal": "7170-011 Redondo",
    "Telefone": "266 989 270",
    "FAX": "266 090 178",
    "Email": "redondo.ministeriopublico@tribunais.org.pt",
    "Posicao": { "Lat": "38.6467239024346", "Lng": "-7.54717826843262" },
    "DadosAtividade": null
  },
  {
    "Nome": "Serv. Ministério Público da Comarca Évora - DIAP - Reguengos de Monsaraz",
    "Tipo": 1,
    "Ordenacao": 1,
    "Morada": "Palácio da Justiça - Campo 25 de Abril",
    "CodigoPostal": "7200-368  Reguengos de Monsaraz",
    "Telefone": "266 090 150",
    "FAX": "266 090 168",
    "Email": "rmonsaraz.ministeriopublico@tribunais.org.pt",
    "Posicao": { "Lat": "38.4232851620758", "Lng": "-7.53754377365112" },
    "DadosAtividade": null
  },
  {
    "Nome": "Serv. Ministério Público da Comarca Évora - DIAP - Vila Viçosa",
    "Tipo": 1,
    "Ordenacao": 1,
    "Morada": "Palácio da Justiça - Largo Gago Coutinho",
    "CodigoPostal": "7160-214  Vila Viçosa",
    "Telefone": "268 105 200",
    "FAX": "268 105 208",
    "Email": "vvicosa.ministeriopublico@tribunais.org.pt",
    "Posicao": { "Lat": "38.7776653151055", "Lng": "-7.42061018943787" },
    "DadosAtividade": null
  },
  {
    "Nome": "Serv. Ministério Público da Comarca Évora - Procuradoria - Juízo Central Cível - Évora",
    "Tipo": 1,
    "Ordenacao": 1,
    "Morada": "Palácio da Justiça, Largo da Porta de Moura",
    "CodigoPostal": "7004-507 Évora",
    "Telefone": "266 748 730",
    "FAX": "266 090 128",
    "Email": "evora.ministeriopublico@tribunais.org.pt",
    "Posicao": { "Lat": "38.570682956497", "Lng": "-7.90531754493713" },
    "DadosAtividade": null
  },
  {
    "Nome": "Serv. Ministério Público da Comarca Évora - Procuradoria - Juízo Central Criminal - Évora",
    "Tipo": 1,
    "Ordenacao": 2,
    "Morada": "Palácio da Justiça, Largo da Porta de Moura",
    "CodigoPostal": "7004-507 Évora",
    "Telefone": "266748730",
    "FAX": "266 090 108",
    "Email": "evora.ministeriopublico@tribunais.org.pt",
    "Posicao": { "Lat": "38.570682956497", "Lng": "-7.90531754493713" },
    "DadosAtividade": null
  },
  {
    "Nome": "Serv. Ministério Público da Comarca Évora - Procuradoria - Juízo Comp. Genérica - Estremoz",
    "Tipo": 1,
    "Ordenacao": 2,
    "Morada": "Palácio da Justiça, Praça Luís de Camões",
    "CodigoPostal": "7100-512  Estremoz",
    "Telefone": "268 339 740",
    "FAX": "268 091 018",
    "Email": "estremoz.ministeriopublico@tribunais.org.pt",
    "Posicao": { "Lat": "38.8420725283296", "Lng": "-7.58781373500824" },
    "DadosAtividade": null
  },
  {
    "Nome": "Serv. Ministério Público da Comarca Évora - Procuradoria - Juízo Comp.Genérica - Montemor-o-Novo",
    "Tipo": 1,
    "Ordenacao": 2,
    "Morada": "Palácio da Justiça - Av. Gago Coutinho",
    "CodigoPostal": "7050-101  Montemor-o-Novo",
    "Telefone": "266 898 360",
    "FAX": "266 898 388",
    "Email": "montnovo.ministeriopublico@tribunais.org.pt",
    "Posicao": { "Lat": "38.6488187077579", "Lng": "-8.21361064910889" },
    "DadosAtividade": null
  },
  {
    "Nome": "Serv. Ministério Público da Comarca Évora - Procuradoria - Juízo Comp.Genérica - Redondo",
    "Tipo": 1,
    "Ordenacao": 2,
    "Morada": "Palácio da Justiça - Praça da República",
    "CodigoPostal": "7170-011 Redondo",
    "Telefone": "266 989 270",
    "FAX": "266 090 178",
    "Email": "redondo.ministeriopublico@tribunais.org.pt",
    "Posicao": { "Lat": "38.6467239024346", "Lng": "-7.54717826843262" },
    "DadosAtividade": null
  },
  {
    "Nome": "Serv. Ministério Público da Comarca Évora - Procuradoria - Juízo Comp.Genérica - Reguengos Monsaraz",
    "Tipo": 1,
    "Ordenacao": 2,
    "Morada": "Palácio da Justiça - Campo 25 de Abril",
    "CodigoPostal": "7200-368  Reguengos de Monsaraz",
    "Telefone": "266 090 150",
    "FAX": "266 090 168",
    "Email": "rmonsaraz.ministeriopublico@tribunais.org.pt",
    "Posicao": { "Lat": "38.4232851620758", "Lng": "-7.53754377365112" },
    "DadosAtividade": null
  },
  {
    "Nome": "Serv. Ministério Público da Comarca Évora - Procuradoria - Juízo Comp.Genérica - Vila Viçosa",
    "Tipo": 1,
    "Ordenacao": 2,
    "Morada": "Palácio da Justiça - Largo Gago Coutinho",
    "CodigoPostal": "7160-214  Vila Viçosa",
    "Telefone": "268 105 200",
    "FAX": "268 105 208",
    "Email": "vvicosa.ministeriopublico@tribunais.org.pt",
    "Posicao": { "Lat": "38.7776653151055", "Lng": "-7.42061018943787" },
    "DadosAtividade": null
  },
  {
    "Nome": "Serv. Ministério Público da Comarca Évora - Procuradoria - Juízo do Trabalho - Évora",
    "Tipo": 1,
    "Ordenacao": 1,
    "Morada": "Largo das Alterações, 1",
    "CodigoPostal": "7004 - 518 Évora",
    "Telefone": "266 730 040",
    "FAX": "266 090 128",
    "Email": "evora.ministeriopublico@tribunais.org.pt",
    "Posicao": { "Lat": "38.5702887086593", "Lng": "-7.91426539421082" },
    "DadosAtividade": null
  },
  {
    "Nome": "Serv. Ministério Público da Comarca Évora - Procuradoria - Juízo Família e Menores - Évora",
    "Tipo": 1,
    "Ordenacao": 3,
    "Morada": "Palácio da Justiça, Largo da Porta de Moura",
    "CodigoPostal": "7004-507 Évora",
    "Telefone": "266 748 730",
    "FAX": "266 090 128",
    "Email": "evora.ministeriopublico@tribunais.org.pt",
    "Posicao": { "Lat": "38.570682956497", "Lng": "-7.90531754493713" },
    "DadosAtividade": null
  },
  {
    "Nome": "Serv. Ministério Público da Comarca Faro - DIAP - Albufeira",
    "Tipo": 1,
    "Ordenacao": 1,
    "Morada": "Rua do Município",
    "CodigoPostal": "8200-161  Albufeira",
    "Telefone": "289 510 700",
    "FAX": "289 091 618",
    "Email": "albufeira.ministeriopublico@tribunais.org.pt",
    "Posicao": { "Lat": "37.0902141283191", "Lng": "-8.24490666389465" },
    "DadosAtividade": null
  },
  {
    "Nome": "Serv. Ministério Público da Comarca Faro - DIAP - Faro",
    "Tipo": 1,
    "Ordenacao": 1,
    "Morada": "Rua Antero de Quental, 9",
    "CodigoPostal": "8000-210 Faro",
    "Telefone": "289 892 942",
    "FAX": "289 892 959",
    "Email": "faro.diap@tribunais.org.pt",
    "Posicao": { "Lat": "37.0165688598223", "Lng": "-7.92580962181091" },
    "DadosAtividade": null
  },
  {
    "Nome": "Serv. Ministério Público da Comarca Faro - DIAP - Lagos",
    "Tipo": 1,
    "Ordenacao": 1,
    "Morada": "Palácio da Justiça - Av. dos Descobrimentos",
    "CodigoPostal": "8601-852 Lagos",
    "Telefone": "282 092 170",
    "FAX": "282 092 198",
    "Email": "lagos.ministeriopublico@tribunais.org.pt",
    "Posicao": { "Lat": "37.1027252604562", "Lng": "-8.67198944091797" },
    "DadosAtividade": null
  },
  {
    "Nome": "Serv. Ministério Público da Comarca Faro - DIAP - Loulé",
    "Tipo": 1,
    "Ordenacao": 1,
    "Morada": "Palácio da Justiça - Rua Dr.ª Laura Aires",
    "CodigoPostal": "8100-851  Loulé",
    "Telefone": "289 401 400",
    "FAX": "289 091 169",
    "Email": "loule.ministeriopublico@tribunais.org.pt",
    "Posicao": { "Lat": "37.138185055304", "Lng": "-8.01757335662842" },
    "DadosAtividade": null
  },
  {
    "Nome": "Serv. Ministério Público da Comarca Faro - DIAP - Olhão",
    "Tipo": 1,
    "Ordenacao": 1,
    "Morada": "Palácio da Justiça - Av dos Combatentes da Grande Guerra",
    "CodigoPostal": "8700-440  Olhão da Restauração",
    "Telefone": "289 710 400",
    "FAX": "289 091 648",
    "Email": "olhao.ministeriopublico@tribunais.org.pt",
    "Posicao": { "Lat": "37.0299400862959", "Lng": "-7.83913135528564" },
    "DadosAtividade": null
  },
  {
    "Nome": "Serv. Ministério Público da Comarca Faro - DIAP - Portimão",
    "Tipo": 1,
    "Ordenacao": 1,
    "Morada": "Palácio da Justiça - Av. Miguel Bombarda",
    "CodigoPostal": "8500-960  Portimão",
    "Telefone": "282 460 800",
    "FAX": "282 092 168",
    "Email": "portimao.ministeriopublico@tribunais.org.pt",
    "Posicao": { "Lat": "37.1335749382919", "Lng": "-8.53782534599304" },
    "DadosAtividade": null
  },
  {
    "Nome": "Serv. Ministério Público da Comarca Faro - DIAP - Silves",
    "Tipo": 1,
    "Ordenacao": 1,
    "Morada": "Palácio da Justiça - Cruz de Portugal",
    "CodigoPostal": "8300-135  Silves",
    "Telefone": "282 440 070",
    "FAX": "282 092 118",
    "Email": "silves.ministeriopublico@tribunais.org.pt",
    "Posicao": { "Lat": "37.1943904765205", "Lng": "-8.43284368515015" },